City_ID,City,Country,Lat,Lng,Max Temp,Humidity,Cloudiness,Wind Speed,Current Description
0,Hobart,AU,-42.8794,147.3294,59.25,96,75,11.5,broken clouds
1,Porto Belo,BR,-27.1578,-48.5531,71.55,91,78,11.27,broken clouds
2,Kokopo,PG,-4.352,152.2633,84.2,66,100,6.58,light rain
3,Kapaa,US,22.0752,-159.319,82.38,78,20,13.8,few clouds
4,Bredasdorp,ZA,-34.5322,20.0403,58.3,97,100,2.37,overcast clouds
5,Qaanaaq,GL,77.484,-69.3632,-0.56,70,5,9.35,clear sky
6,Ushuaia,AR,-54.8,-68.3,49.66,50,75,17.27,broken clouds
7,Dikson,RU,73.5069,80.5464,21.09,84,83,10.33,broken clouds
8,Mar Del Plata,AR,-38.0023,-57.5575,55.42,95,100,13.8,overcast clouds
9,East London,ZA,-33.0153,27.9116,64.18,85,0,15.48,clear sky
10,Vila Velha,BR,-20.3297,-40.2925,71.55,94,40,3.44,scattered clouds
11,Rikitea,PF,-23.1203,-134.9692,73.42,82,68,8.34,broken clouds
12,Tuktoyaktuk,CA,69.4541,-133.0374,11.39,85,8,17.25,clear sky
13,Coihaique,CL,-45.5752,-72.0662,49.95,50,0,8.05,clear sky
14,Belaya Gora,RU,68.5333,146.4167,13.12,87,63,5.66,broken clouds
15,Tasiilaq,GL,65.6145,-37.6368,30.36,95,80,6.08,broken clouds
16,Kruisfontein,ZA,-34.0033,24.7314,54.88,90,0,5.95,clear sky
17,Aklavik,CA,68.2191,-135.0107,12.83,95,100,6.67,light snow
18,Pevek,RU,69.7008,170.3133,-4.04,99,50,5.68,scattered clouds
19,Gornopravdinsk,RU,60.05,69.9,23.38,92,7,3.06,clear sky
20,Boyolangu,ID,-8.1181,111.8935,81.3,71,79,10.71,broken clouds
21,Paragould,US,36.0584,-90.4973,54.82,66,0,7.56,clear sky
22,Whitecourt,CA,54.1502,-115.6855,39.79,36,100,5.97,overcast clouds
23,Zhanaozen,KZ,43.3,52.8,48.15,53,100,16.93,overcast clouds
24,Hermanus,ZA,-34.4187,19.2345,62.8,93,100,5.44,overcast clouds
25,Coquimbo,CL,-29.9533,-71.3436,53.33,100,0,3.44,clear sky
26,Codrington,AU,-38.2667,141.9667,57.07,94,100,13.33,overcast clouds
27,Kjollefjord,NO,70.9457,27.3465,33.85,93,100,6.91,overcast clouds
28,Muros,ES,42.7762,-9.0603,67.68,87,95,19.04,moderate rain
29,Vao,NC,-22.6667,167.4833,74.14,81,10,13.18,clear sky
30,Provideniya,RU,64.3833,-173.3,24.91,58,100,7.0,overcast clouds
31,Punta Arenas,CL,-53.15,-70.9167,46.11,65,100,30.11,light rain
32,Buta,CD,2.7858,24.73,68.59,99,97,0.67,overcast clouds
33,Clyde River,CA,70.4692,-68.5914,25.03,100,100,25.32,light snow
34,Yellowknife,CA,62.456,-114.3525,26.56,92,99,3.0,overcast clouds
35,Hithadhoo,MV,-0.6,73.0833,82.31,75,29,7.2,scattered clouds
36,Borgustanskaya,RU,44.0547,42.5288,33.6,68,100,2.59,overcast clouds
37,Mandera,KE,3.9366,41.867,77.49,77,14,13.31,few clouds
38,Port Lincoln,AU,-34.7333,135.8667,63.25,58,7,18.3,clear sky
39,Dryden,CA,49.7833,-92.7503,28.53,80,16,2.57,few clouds
40,Barrow,US,71.2906,-156.7887,21.22,86,75,11.5,light snow
41,Kaitangata,NZ,-46.2817,169.8464,47.16,97,100,8.19,light rain
42,Ostrovnoy,RU,68.0531,39.5131,36.54,88,100,13.76,light rain
43,Praia Da Vitoria,PT,38.7333,-27.0667,55.76,80,99,15.03,overcast clouds
44,Atuona,PF,-9.8,-139.0333,77.2,77,14,19.06,few clouds
45,Buala,SB,-8.145,159.5921,83.41,73,67,2.39,moderate rain
46,Nikolskoye,RU,59.7035,30.7861,49.91,98,100,3.94,overcast clouds
47,Kahului,US,20.8947,-156.47,82.42,80,40,13.8,scattered clouds
48,Pilani,IN,28.3684,75.6041,77.47,32,0,7.67,clear sky
49,Noshiro,JP,40.2039,140.0242,56.21,56,56,3.94,broken clouds
50,Vaini,TO,-21.2,-175.2,80.76,65,75,9.22,broken clouds
51,Tilichiki,RU,60.4667,166.1,27.52,72,50,7.38,scattered clouds
52,Iracoubo,GF,5.4802,-53.2011,77.31,89,100,9.4,overcast clouds
53,Fowa,NG,8.9167,6.4,74.32,74,88,0.38,overcast clouds
54,Bowen,AU,-20.0167,148.2333,84.04,77,22,13.09,few clouds
55,Cidreira,BR,-30.1811,-50.2056,66.9,95,100,7.74,overcast clouds
56,Mataura,NZ,-46.1927,168.8643,47.48,99,100,5.68,light rain
57,Zyryanka,RU,65.75,150.85,19.45,79,100,7.56,overcast clouds
58,Voh,NC,-20.9667,164.7,79.7,71,69,5.28,broken clouds
59,Luderitz,NA,-26.6481,15.1594,58.08,86,0,12.12,clear sky
60,Tiarei,PF,-17.5333,-149.3333,80.62,83,100,19.24,light rain
61,Maldonado,UY,-34.6667,-54.9167,63.79,83,16,15.17,few clouds
62,Lakes Entrance,AU,-37.8811,147.981,71.17,53,96,11.92,overcast clouds
63,Tabuk,PH,17.4189,121.4443,81.82,69,92,7.63,overcast clouds
64,Albany,US,42.6001,-73.9662,63.55,77,63,3.0,broken clouds
65,Omaruru,NA,-21.4333,15.9333,69.93,34,8,5.39,clear sky
66,Santa Cruz,BO,-17.8,-63.1667,81.86,69,40,6.91,scattered clouds
67,Te Anau,NZ,-45.4167,167.7167,49.35,98,100,1.39,moderate rain
68,Ambanja,MG,-13.6833,48.45,73.54,83,91,2.46,overcast clouds
69,Iqaluit,CA,63.7506,-68.5145,35.33,80,100,11.5,light rain
70,Cherskiy,RU,68.75,161.3,-3.12,97,100,4.56,overcast clouds
71,Half Moon Bay,US,37.4636,-122.4286,60.1,67,0,18.41,clear sky
72,Rawson,AR,-43.3002,-65.1023,61.84,32,3,20.54,clear sky
73,Navolato,MX,24.7672,-107.6944,75.38,70,3,5.48,clear sky
74,Chokurdakh,RU,70.6333,147.9167,9.82,96,97,9.4,overcast clouds
75,Hoi An,VN,15.8794,108.335,82.36,76,100,6.06,overcast clouds
76,Lebu,CL,-37.6167,-73.65,49.23,92,9,7.81,clear sky
77,Xuddur,SO,4.1213,43.8894,71.38,91,50,10.58,scattered clouds
78,Cayenne,GF,4.9333,-52.3333,77.04,94,75,0.0,broken clouds
79,Busselton,AU,-33.65,115.3333,62.02,41,18,2.68,few clouds
80,Bluff,NZ,-46.6,168.3333,47.8,95,100,13.11,light rain
81,Arraial Do Cabo,BR,-22.9661,-42.0278,71.87,85,42,21.7,scattered clouds
82,Cape Town,ZA,-33.9258,18.4232,62.89,85,100,13.0,overcast clouds
83,Salalah,OM,17.0151,54.0924,73.49,73,20,3.44,few clouds
84,Saint-Francois,FR,46.4154,3.9054,51.24,100,0,3.44,clear sky
85,Camacha,PT,33.0833,-16.3333,67.42,83,75,1.14,broken clouds
86,Newport,GB,51.5877,-2.9984,60.03,89,99,9.46,light rain
87,Naustdal,NO,61.509,5.7168,53.46,96,100,5.28,overcast clouds
88,Narsaq,GL,60.9167,-46.05,30.42,92,94,5.73,overcast clouds
89,Torbay,CA,47.6666,-52.7314,58.26,96,100,17.27,overcast clouds
90,Nelson Bay,AU,-32.7167,152.15,84.25,72,62,7.0,broken clouds
91,Nishihara,JP,26.1842,127.7558,82.06,54,20,19.57,few clouds
92,Savannah Bight,HN,16.45,-85.85,82.99,69,74,10.6,broken clouds
93,Paita,PE,-5.0892,-81.1144,63.41,84,28,9.35,scattered clouds
94,Butaritari,KI,3.0707,172.7902,82.4,76,42,15.79,scattered clouds
95,Aranos,NA,-24.1333,19.1167,70.93,24,5,8.55,clear sky
96,Vanderhoof,CA,54.0166,-124.0198,44.64,49,100,16.2,overcast clouds
97,Dinghai,CN,26.2847,119.7936,70.92,76,8,15.23,clear sky
98,Kailua,US,21.4022,-157.7394,82.38,76,74,1.01,broken clouds
99,Faanui,PF,-16.4833,-151.75,75.78,87,100,20.65,moderate rain
100,Yar-Sale,RU,66.8333,70.8333,28.2,83,100,17.11,overcast clouds
101,Shetpe,KZ,44.1667,52.1167,45.12,46,100,12.91,overcast clouds
102,Bilibino,RU,68.0546,166.4372,2.21,100,97,1.92,overcast clouds
103,Verkhnevilyuysk,RU,63.4453,120.3167,30.63,84,100,10.0,overcast clouds
104,Fairbanks,US,64.8378,-147.7164,17.56,77,0,8.05,clear sky
105,Butterworth,MY,5.3991,100.3638,84.34,78,20,5.75,few clouds
106,Kalianget,ID,-7.05,113.9333,79.66,80,100,1.59,overcast clouds
107,Port Elizabeth,ZA,-33.918,25.5701,57.09,92,10,6.69,clear sky
108,Sao Joao Da Barra,BR,-21.6403,-41.0511,72.59,85,71,13.6,broken clouds
109,Ko Samui,TH,9.5357,99.9357,82.27,76,100,6.98,overcast clouds
110,Grand-Santi,GF,4.25,-54.3833,72.3,98,54,2.39,broken clouds
111,Avarua,CK,-21.2078,-159.775,73.45,78,20,6.91,few clouds
112,Manggar,ID,-2.8833,108.2667,85.73,65,98,8.12,overcast clouds
113,Viedma,AR,-40.8135,-62.9967,53.74,67,0,6.06,clear sky
114,Porto Velho,BR,-8.7619,-63.9039,77.05,94,0,1.14,clear sky
115,Fengrun,CN,39.8333,118.1167,53.83,19,93,6.87,overcast clouds
116,Calvinia,ZA,-31.4707,19.776,61.3,29,63,4.88,broken clouds
117,Castro,BR,-24.7911,-50.0119,58.68,61,13,3.13,few clouds
118,Jamshedpur,IN,22.8,86.1833,74.98,60,0,2.33,clear sky
119,Ogaminana,NG,7.5946,6.2248,73.08,92,23,2.28,few clouds
120,Elk Plain,US,47.0532,-122.3976,50.27,80,100,6.91,overcast clouds
121,North Bend,US,43.4065,-124.2243,51.85,100,0,5.75,clear sky
122,Kloulklubed,PW,7.0419,134.2556,75.7,81,100,23.11,moderate rain
123,Amapa,BR,1.0,-52.0,73.13,88,100,2.77,overcast clouds
124,Upernavik,GL,72.7868,-56.1549,19.94,95,100,6.42,light snow
125,Owando,CG,-0.4819,15.8999,70.07,100,100,0.38,moderate rain
126,Lushnje,AL,40.9419,19.705,61.47,70,0,2.35,clear sky
127,Soyo,AO,-6.1349,12.3689,76.66,90,80,8.05,broken clouds
128,Shakawe,BW,-18.3667,21.85,71.15,58,71,2.57,moderate rain
129,Korla,CN,41.7597,86.1469,56.98,31,97,8.1,overcast clouds
130,Saint-Philippe,RE,-21.3585,55.7679,71.19,80,96,10.09,overcast clouds
131,Lavrentiya,RU,65.5833,-171.0,23.99,73,21,3.38,few clouds
132,Carnarvon,AU,-24.8667,113.6333,71.31,53,0,21.77,clear sky
133,Upornaya,RU,44.3914,41.0196,48.65,78,77,3.76,broken clouds
134,Pizarro,CO,4.9533,-77.366,75.18,91,100,4.18,overcast clouds
135,Powell River,CA,49.8496,-124.5361,49.03,91,100,8.03,light rain
136,Longyearbyen,SJ,78.2186,15.6401,13.84,79,20,9.22,few clouds
137,Hasaki,JP,35.7333,140.8333,70.21,46,36,4.72,scattered clouds
138,Merauke,ID,-8.4667,140.3333,86.49,63,81,9.71,broken clouds
139,Kulhudhuffushi,MV,6.6221,73.07,81.63,69,5,2.19,clear sky
140,Ceres,US,37.5949,-120.9577,63.05,44,0,10.36,clear sky
141,Morena,IN,26.4969,78.0,74.86,48,0,5.66,clear sky
142,Santarem,BR,-2.4431,-54.7083,75.33,100,0,1.14,clear sky
143,Lumberton,US,34.6182,-79.0086,68.0,83,100,5.75,overcast clouds
144,Port Alfred,ZA,-33.5906,26.891,58.17,96,0,13.6,clear sky
145,Tananger,NO,58.9333,5.6,55.33,90,40,14.97,scattered clouds
146,Lanzhou,CN,36.0564,103.7922,59.11,62,11,4.81,few clouds
147,Khani,GE,41.9563,42.9566,38.77,76,37,3.74,scattered clouds
148,Zhaoqing,CN,23.0512,112.4597,81.82,48,7,2.59,clear sky
149,Ravar,IR,31.2656,56.8055,64.11,31,0,1.88,clear sky
150,Thompson,CA,55.7435,-97.8558,20.01,96,30,5.46,scattered clouds
151,Saint-Paul,RE,-21.0096,55.2707,74.35,79,100,3.27,overcast clouds
152,Hilo,US,19.7297,-155.09,76.12,97,100,4.61,overcast clouds
153,Vila Franca Do Campo,PT,37.7167,-25.4333,59.41,72,100,12.26,light rain
154,Saint George,US,37.1041,-113.5841,61.39,26,0,4.61,clear sky
155,Mahon,ES,39.8885,4.2658,68.56,100,100,2.3,mist
156,Ponazyrevo,RU,58.3578,46.3142,30.4,78,99,8.59,overcast clouds
157,Buchanan,LR,5.8808,-10.0467,76.95,89,93,5.26,moderate rain
158,Noboribetsu,JP,42.4514,141.1731,54.3,59,6,3.98,clear sky
159,Ipixuna,BR,-1.7625,-48.8043,73.8,95,100,3.18,overcast clouds
160,Bereznik,RU,62.8551,42.7072,35.65,92,100,8.48,overcast clouds
161,Alihe,CN,50.5667,123.7167,38.37,33,0,2.91,clear sky
162,Phan Thiet,VN,10.9333,108.1,80.67,82,100,2.55,overcast clouds
163,Camacari,BR,-12.6975,-38.3242,74.97,96,99,3.38,overcast clouds
164,Henties Bay,NA,-22.116,14.2845,57.67,92,2,2.82,clear sky
165,Noumea,NC,-22.2763,166.4572,89.58,68,35,8.86,scattered clouds
166,Mahebourg,MU,-20.4081,57.7,75.49,73,40,13.8,scattered clouds
167,Olivet,FR,47.8622,1.8991,59.99,84,0,10.36,clear sky
168,Puerto Ayora,EC,-0.7393,-90.3518,64.54,98,31,7.0,scattered clouds
169,Kemijarvi,FI,66.7131,27.4306,22.51,97,43,2.57,scattered clouds
170,Husavik,IS,66.0449,-17.3389,38.37,91,98,4.12,overcast clouds
171,Oistins,BB,13.0667,-59.5333,82.49,78,40,19.57,scattered clouds
172,New Norfolk,AU,-42.7826,147.0587,58.91,88,100,2.08,overcast clouds
173,Payo,ID,-3.7508,103.6372,85.06,66,100,1.81,overcast clouds
174,Scalea,IT,39.813,15.7956,68.02,61,84,1.9,broken clouds
175,Tongren,CN,27.7172,109.1853,57.85,89,100,5.86,overcast clouds
176,Ponta Do Sol,PT,32.6667,-17.1,70.72,76,42,7.52,scattered clouds
177,Laela,TZ,-8.5667,32.05,65.01,50,63,3.56,broken clouds
178,Souillac,MU,-20.5167,57.5167,75.58,73,40,13.8,scattered clouds
179,San Patricio,US,28.017,-97.5169,69.84,57,4,7.14,clear sky
180,Chuy,UY,-33.6971,-53.4616,63.09,89,99,14.61,overcast clouds
181,Hofn,IS,64.2539,-15.2082,42.19,81,11,20.18,few clouds
182,Shieli,KZ,44.1667,66.75,39.78,74,4,5.88,clear sky
183,Bathsheba,BB,13.2167,-59.5167,83.01,78,40,19.57,scattered clouds
184,Sitka,US,57.0531,-135.33,46.29,87,100,14.97,light rain
185,Ribeira Grande,PT,38.5167,-28.7,60.8,58,100,16.75,overcast clouds
186,Jamestown,US,42.097,-79.2353,47.01,94,100,13.8,mist
187,Bara,NG,10.3744,10.7288,72.25,31,6,6.51,clear sky
188,Redlands,US,34.0556,-117.1825,64.44,67,0,6.91,clear sky
189,Nanortalik,GL,60.1432,-45.2371,32.76,98,97,3.76,overcast clouds
190,Airai,TL,-8.9266,125.4092,79.03,43,15,1.95,few clouds
191,Tiksi,RU,71.6872,128.8694,17.73,95,100,8.84,overcast clouds
192,Maketu,NZ,-37.7667,176.45,70.84,32,85,12.17,overcast clouds
193,Mahibadhoo,MV,3.7833,72.9667,81.1,79,8,5.97,clear sky
194,Dingle,PH,10.9995,122.6711,85.66,75,100,10.18,overcast clouds
195,Padang,ID,-0.9492,100.3543,84.25,70,73,3.31,broken clouds
196,West Helena,US,34.5507,-90.6418,47.95,47,0,7.29,clear sky
197,Takoradi,GH,4.8845,-1.7554,77.99,88,98,5.44,overcast clouds
198,Malayal,PH,7.208,121.942,83.17,76,79,8.95,light rain
199,Juneau,US,58.3019,-134.4197,44.6,97,100,5.75,moderate rain
200,Whitehorse,CA,60.7161,-135.0538,32.77,91,100,11.5,light snow
201,Kavaratti,IN,10.5669,72.642,81.57,58,3,8.3,clear sky
202,Nicoya,CR,10.1483,-85.452,74.93,93,79,1.5,broken clouds
203,Quatre Cocos,MU,-20.2078,57.7625,75.31,76,79,10.85,broken clouds
204,Sokode,TG,8.9833,1.1333,71.91,89,50,2.1,light rain
205,Kitob,UZ,39.0843,66.8332,52.57,59,1,3.09,clear sky
206,Simao,CN,22.7886,100.9748,71.33,70,99,3.22,overcast clouds
207,Rivne,UA,50.6231,26.2274,46.08,95,69,6.13,broken clouds
208,Severo-Kurilsk,RU,50.6789,156.125,41.38,66,100,3.06,overcast clouds
209,Golyshmanovo,RU,56.3979,68.3728,24.28,87,10,11.99,clear sky
210,Lagoa,PT,39.05,-27.9833,60.85,55,88,20.47,overcast clouds
211,Ust-Ishim,RU,57.6935,71.1665,25.56,82,44,8.21,scattered clouds
212,Lufilufi,WS,-13.8745,-171.5986,76.78,80,100,11.21,moderate rain
213,Marzuq,YE,14.4,46.4667,63.03,32,5,0.81,clear sky
214,Victoria,HK,22.2855,114.1577,82.45,65,30,10.0,scattered clouds
215,Naze,JP,28.3667,129.4833,72.09,55,55,16.84,broken clouds
216,Kawalu,ID,-7.3817,108.2082,77.34,79,91,4.45,overcast clouds
217,Port-Gentil,GA,-0.7193,8.7815,78.46,83,100,5.14,moderate rain
218,San Ramon,US,37.7799,-121.978,59.38,67,0,4.61,clear sky
219,Lubao,PH,14.9167,120.55,85.55,58,99,5.75,overcast clouds
220,Bowling Green,US,36.9903,-86.4436,42.73,87,0,0.0,mist
221,Dali,CN,25.7,100.1833,66.34,59,12,2.1,few clouds
222,Ust-Maya,RU,60.4167,134.5333,24.78,88,94,5.39,overcast clouds
223,Chiredzi,ZW,-21.05,31.6667,71.67,76,47,11.61,scattered clouds
224,Nador,MA,35.174,-2.9287,66.45,100,100,0.0,overcast clouds
225,Wilmington,US,34.2257,-77.9447,69.85,90,40,0.0,scattered clouds
226,Goderich,CA,43.7501,-81.7165,47.91,66,100,24.18,overcast clouds
227,Saldanha,ZA,-33.0117,17.9442,60.49,93,100,19.35,overcast clouds
228,Avera,US,33.194,-82.5271,56.71,66,0,6.58,clear sky
229,Labuan,MY,5.2767,115.2417,81.41,78,98,8.46,overcast clouds
230,Villa Maria,AR,-32.4075,-63.2402,62.98,41,0,3.78,clear sky
231,Santa Maria,BR,-29.6842,-53.8069,65.44,92,100,6.69,overcast clouds
232,Coachella,US,33.6803,-116.1739,73.54,39,0,0.0,clear sky
233,Khatanga,RU,71.9667,102.5,0.3,96,97,9.17,overcast clouds
234,Bingol,TR,38.8847,40.4939,49.44,62,33,4.38,scattered clouds
235,Najran,SA,17.4924,44.1277,59.65,32,1,2.42,clear sky
236,Maceio,BR,-9.6658,-35.7353,76.44,94,75,4.61,mist
237,Berezovyy,RU,51.6667,135.7,38.44,55,64,8.14,broken clouds
238,Aykhal,RU,66.0,111.5,18.79,92,67,23.89,broken clouds
239,Saint-Joseph,RE,-21.3667,55.6167,70.18,78,88,8.12,overcast clouds
240,Yulara,AU,-25.2406,130.9889,80.22,26,0,6.82,clear sky
241,Urumqi,CN,43.801,87.6005,45.55,49,0,4.47,clear sky
242,Bengkulu,ID,-3.8004,102.2655,80.69,75,100,5.5,light rain
243,Leningradskiy,RU,69.3833,178.4167,7.79,95,100,7.74,overcast clouds
244,Porto Santo,PT,33.072,-16.3415,70.18,83,75,1.14,broken clouds
245,Nacala,MZ,-14.5428,40.6728,72.66,86,6,7.92,clear sky
246,Adre,TD,13.4667,22.2,70.07,26,51,10.89,broken clouds
247,Ancud,CL,-41.8697,-73.8203,48.79,91,17,11.5,few clouds
248,Kumluca,TR,36.3703,30.2869,71.01,36,0,6.55,clear sky
249,Illapel,CL,-31.6308,-71.1653,58.86,72,0,1.41,clear sky
250,Georgetown,MY,5.4112,100.3354,84.24,78,20,5.75,few clouds
251,Orange Cove,US,36.6244,-119.3137,62.26,53,0,3.44,haze
252,Acapulco,MX,16.8634,-99.8901,80.42,89,40,6.91,scattered clouds
253,San Quintin,MX,30.4833,-115.95,64.92,81,1,12.39,clear sky
254,Kodiak,US,57.79,-152.4072,42.31,61,100,18.41,light rain
255,Havoysund,NO,70.9963,24.6622,34.03,83,100,10.22,light snow
256,Edson,CA,53.5835,-116.4356,37.06,39,99,6.2,overcast clouds
257,Vyshhorod,UA,50.5848,30.4898,51.94,97,46,9.71,scattered clouds
258,Zhicheng,CN,30.2956,111.5047,57.67,86,100,6.33,overcast clouds
259,Izhma,RU,65.0083,53.9113,29.01,92,100,10.47,overcast clouds
260,Villanueva De Cordoba,ES,38.3228,-4.6287,63.97,38,60,4.36,broken clouds
261,Praya,CV,14.9215,-23.5087,77.54,83,20,12.66,few clouds
262,Mehamn,NO,71.0357,27.8492,35.51,93,100,6.91,overcast clouds
263,Atagay,RU,55.1033,99.3875,36.81,43,51,3.22,broken clouds
264,Broome,US,42.2506,-75.833,58.19,87,20,8.05,few clouds
265,Bambous Virieux,MU,-20.3428,57.7575,75.45,73,40,13.8,light rain
266,Necochea,AR,-38.5473,-58.7368,54.55,97,100,18.05,overcast clouds
267,Idritsa,RU,56.3316,28.8988,48.88,95,99,7.52,overcast clouds
268,Umm Kaddadah,SD,13.6017,26.6876,72.77,26,45,12.39,scattered clouds
269,Riyadh,SA,24.6877,46.7219,64.54,26,44,4.85,scattered clouds
270,Topolobampo,MX,25.6,-109.05,73.31,60,0,6.91,clear sky
271,Kocerin,BA,43.3897,17.485,57.67,71,2,5.84,clear sky
272,Saskylakh,RU,71.9167,114.0833,11.44,94,100,13.15,light snow
273,Salta,AR,-24.7859,-65.4117,63.66,43,0,4.34,clear sky
274,Omsukchan,RU,62.5333,155.8,8.1,85,29,3.18,scattered clouds
275,Rafaela,AR,-31.2503,-61.4867,64.98,50,0,3.24,clear sky
276,Dodge City,US,37.7528,-100.0171,54.7,55,0,16.11,clear sky
277,Galeras,CO,9.161,-75.0481,73.89,95,94,5.64,overcast clouds
278,Ilulissat,GL,69.2167,-51.1,30.22,64,100,5.75,overcast clouds
279,Guerrero Negro,MX,27.9769,-114.0611,67.05,77,38,14.52,scattered clouds
280,Chongwe,ZM,-15.3292,28.682,71.56,42,1,5.32,clear sky
281,Laguna,US,38.421,-121.4238,62.76,37,0,4.61,clear sky
282,Darlos,RO,46.1833,24.4,40.91,90,1,1.79,clear sky
283,Manono,CD,-7.3,27.4167,69.03,96,99,0.94,light rain
284,Chernyshevskiy,RU,63.0128,112.4714,28.02,82,100,8.68,overcast clouds
285,Makakilo City,US,21.3469,-158.0858,80.92,64,40,14.97,scattered clouds
286,Paris,FR,48.8534,2.3488,60.22,89,0,5.75,clear sky
287,Flinders,AU,-34.5833,150.8552,81.37,48,51,8.99,broken clouds
288,Dutlwe,BW,-23.9833,23.9,75.11,44,100,10.2,light rain
289,Atasu,KZ,48.6814,71.6433,30.7,75,98,21.85,overcast clouds
290,Port Blair,IN,11.6667,92.75,84.24,79,75,6.91,broken clouds
291,Mumford,GH,5.2618,-0.759,77.81,88,100,4.23,overcast clouds
292,Caconda,AO,-13.7333,15.0667,63.64,80,97,2.77,overcast clouds
293,Tres Arroyos,AR,-38.3739,-60.2798,54.1,96,100,13.65,overcast clouds
294,Trzcianka,PL,53.0406,16.4563,49.71,93,32,4.99,scattered clouds
295,Kodinsk,RU,58.6881,99.1844,31.73,57,100,2.86,overcast clouds
296,Kuandian,CN,40.7286,124.7847,50.02,48,0,9.55,clear sky
297,Assare,BR,-6.8744,-39.875,74.08,72,98,2.51,overcast clouds
298,Noratus,AM,40.3755,45.1772,44.65,74,77,4.23,broken clouds
299,Fatick,SN,14.3581,-16.5858,79.3,65,55,7.81,broken clouds
300,Constitucion,CL,-35.3333,-72.4167,52.88,82,6,11.74,clear sky
301,Poltavka,RU,54.3663,71.7632,30.2,96,100,18.84,light snow
302,Srednekolymsk,RU,67.45,153.6833,16.99,92,100,13.69,overcast clouds
303,Mbeya,TZ,-8.9,33.45,59.56,64,12,5.55,few clouds
304,Mogadishu,SO,2.0371,45.3438,77.99,85,79,10.94,broken clouds
305,Huarmey,PE,-10.0681,-78.1522,61.95,87,83,8.63,broken clouds
306,Aasiaat,GL,68.7098,-52.8699,22.75,82,100,10.94,overcast clouds
307,Black River,JM,18.0264,-77.8487,76.68,83,97,5.35,overcast clouds
308,Dunedin,NZ,-45.8742,170.5036,46.8,93,100,1.99,overcast clouds
309,Lively,CA,46.4334,-81.1498,36.01,87,93,11.23,overcast clouds
310,Sistranda,NO,63.7256,8.834,46.36,79,100,6.64,moderate rain
311,Sarangani,PH,5.4033,125.4636,83.61,77,88,20.76,light rain
312,Lashio,MM,22.9333,97.75,75.99,72,31,2.01,scattered clouds
313,Puerto Escondido,MX,15.85,-97.0667,81.43,61,40,3.44,scattered clouds
314,Isangel,VU,-19.55,169.2667,80.28,74,15,6.73,few clouds
315,Taltal,CL,-25.4,-70.4833,60.76,70,1,3.0,clear sky
316,Geraldton,AU,-28.7667,114.6,70.21,49,0,13.8,clear sky
317,Ribeirao Branco,BR,-24.2208,-48.7656,57.92,86,0,2.91,clear sky
318,Bezhetsk,RU,57.7851,36.6965,36.97,84,100,9.01,overcast clouds
319,Camopi,GF,3.1655,-52.3158,72.59,96,89,2.13,overcast clouds
320,Zhigansk,RU,66.7697,123.3711,28.09,87,100,20.07,overcast clouds
321,Kanniyakumari,IN,8.0833,77.5667,81.46,71,23,5.84,few clouds
322,Namibe,AO,-15.1961,12.1522,67.37,79,85,5.77,overcast clouds
323,Funtua,NG,11.5233,7.3081,67.21,33,18,8.61,few clouds
324,Hudiksvall,SE,61.729,17.1036,44.28,88,100,5.14,overcast clouds
325,Betioky,MG,-23.7167,44.3833,70.92,76,8,3.49,clear sky
326,Heiligenhafen,DE,54.3667,10.9833,55.06,92,100,13.53,overcast clouds
327,Sabla,NG,12.7525,4.7077,76.35,23,49,9.64,scattered clouds
328,Nikel,RU,69.4128,30.222,32.18,93,100,2.82,overcast clouds
329,Sisimiut,GL,66.9395,-53.6735,30.49,67,100,14.74,overcast clouds
330,Los Llanos De Aridane,ES,28.6585,-17.9182,64.15,45,0,8.01,clear sky
331,Bogande,BF,12.9714,-0.1436,81.05,32,100,7.65,overcast clouds
332,Nouadhibou,MR,20.931,-17.0347,70.81,81,100,17.07,overcast clouds
333,Krasnoselkup,RU,65.7,82.4667,15.6,94,97,13.11,overcast clouds
334,Ozorkow,PL,51.9634,19.2914,47.95,90,76,6.55,broken clouds
335,Caravelas,BR,-17.7125,-39.2481,70.81,91,13,4.43,few clouds
336,Semirom,IR,31.4167,51.5667,46.56,37,71,0.67,broken clouds
337,Nhlangano,SZ,-27.1167,31.2,58.98,93,100,1.74,overcast clouds
338,Havelock,US,34.8791,-76.9013,67.98,95,0,0.0,clear sky
339,Blieskastel,DE,49.2372,7.2562,52.61,97,0,6.91,clear sky
340,Novoplatnirovskaya,RU,46.1065,39.4191,55.44,83,100,10.45,overcast clouds
341,Murmino,RU,54.6036,40.0544,36.25,96,100,8.43,overcast clouds
342,Quang Ngai,VN,15.1167,108.8,80.67,78,100,6.08,overcast clouds
343,Mossendjo,CG,-2.9506,12.7261,69.84,99,100,1.05,overcast clouds
344,Udachnyy,RU,66.4167,112.4,21.81,85,13,17.87,few clouds
345,Nova Olimpia,BR,-14.7972,-57.2881,82.18,58,56,7.11,broken clouds
346,Palmerston,AU,-12.486,130.9833,93.88,65,20,10.36,few clouds
347,Doha,QA,25.2867,51.5333,80.58,76,0,2.3,clear sky
348,Yeppoon,AU,-23.1333,150.7333,92.98,58,6,12.06,clear sky
349,Marsh Harbour,BS,26.5412,-77.0636,77.36,60,0,8.23,clear sky
350,Sharan,RU,54.8167,54.0,27.01,84,98,4.14,overcast clouds
351,Araouane,ML,18.9048,-3.5265,80.53,18,3,8.46,clear sky
352,Wajir,KE,1.7471,40.0573,76.28,75,85,13.67,overcast clouds
353,Esperance,AU,-33.8667,121.9,60.13,51,53,10.4,broken clouds
354,Norman Wells,CA,65.282,-126.8329,19.06,87,99,8.19,overcast clouds
355,Katsuura,JP,35.1333,140.3,63.12,53,38,4.5,scattered clouds
356,Portsoy,GB,57.6814,-2.6896,51.66,83,84,5.01,broken clouds
357,Belmonte,BR,-15.8631,-38.8828,72.09,88,18,3.27,few clouds
358,Lata,PT,40.1629,-8.3327,68.81,87,100,4.94,overcast clouds
359,Asau,RO,46.4333,26.4,40.12,91,2,4.36,clear sky
360,Oeiras Do Para,BR,-2.0031,-49.8544,74.37,89,100,1.61,overcast clouds
361,Pemangkat,ID,1.1667,108.9667,82.35,72,100,6.76,overcast clouds
362,Chokwe,MZ,-24.5333,32.9833,72.23,88,94,8.75,overcast clouds
363,Vaasa,FI,63.096,21.6158,40.28,100,100,5.75,fog
364,Kirakira,SB,-10.4544,161.9205,83.39,73,33,1.92,scattered clouds
365,Yanam,IN,16.7333,82.2167,82.78,64,0,5.64,clear sky
366,Vila,PT,42.0304,-8.1588,56.7,83,71,6.04,broken clouds
367,Hirtshals,DK,57.5881,9.9592,54.95,95,63,14.83,broken clouds
368,Jiazi,CN,22.8779,116.067,77.83,59,6,12.86,clear sky
369,Thinadhoo,MV,0.5333,72.9333,82.83,73,87,13.4,overcast clouds
370,Buraydah,SA,26.326,43.975,71.83,22,100,8.52,overcast clouds
371,Mayumba,GA,-3.432,10.6554,76.14,92,100,7.58,light rain
372,Vanavara,RU,60.34,102.2797,29.48,66,100,4.23,overcast clouds
373,Quelimane,MZ,-17.8786,36.8883,75.15,88,0,8.05,clear sky
374,Ciro Marina,IT,39.3732,17.126,68.7,60,17,8.37,few clouds
375,Sambava,MG,-14.2667,50.1667,72.43,75,96,7.14,overcast clouds
376,Cabedelo,BR,-6.9811,-34.8339,77.67,78,90,10.6,overcast clouds
377,Copiapo,CL,-27.3667,-70.3333,51.49,47,0,0.13,clear sky
378,Cabo San Lucas,MX,22.8909,-109.9124,74.5,73,2,9.31,clear sky
379,Talnakh,RU,69.4865,88.3972,7.3,96,100,8.34,overcast clouds
380,Saratoga Springs,US,43.0831,-73.7846,64.89,75,79,7.63,broken clouds
381,Kropotkin,RU,45.4375,40.5756,54.37,91,96,9.93,overcast clouds
382,Moerai,PF,-22.4333,-151.3333,71.6,76,42,14.7,scattered clouds
383,Nokaneng,BW,-19.6667,22.2667,72.54,57,95,8.21,light rain
384,Minas De Barroteran,MX,27.6333,-101.2833,65.75,46,7,4.94,clear sky
385,Yatou,CN,37.15,122.3833,60.71,66,20,13.31,few clouds
386,Vestmannaeyjar,IS,63.4427,-20.2734,41.58,77,76,11.3,broken clouds
387,Bereda,ES,43.2686,-7.5406,58.78,87,25,5.75,scattered clouds
388,Batagay-Alyta,RU,67.8006,130.4114,11.95,84,100,4.09,overcast clouds
389,Kiunga,PG,-6.1219,141.2906,87.19,66,99,1.95,overcast clouds
390,Chanika,TZ,-5.4167,38.0167,66.83,89,89,3.53,overcast clouds
391,Ruteng,ID,-8.6136,120.4721,76.87,56,92,0.45,overcast clouds
392,Martapura,ID,-3.4167,114.85,78.89,89,75,6.91,broken clouds
393,Mao,ES,39.8885,4.2658,68.56,100,100,3.44,overcast clouds
394,Norsup,VU,-16.0667,167.3833,83.43,70,19,1.7,few clouds
395,Alakurtti,RU,66.9672,30.3491,29.44,90,58,2.8,broken clouds
396,Uyuni,BO,-20.4597,-66.825,43.95,10,0,6.71,clear sky
397,Tuatapere,NZ,-46.1333,167.6833,50.18,96,100,5.32,heavy intensity rain
398,Lahat,ID,-3.8,103.5333,84.81,64,100,2.37,light rain
399,Nsanje,MW,-16.92,35.262,75.69,63,0,4.56,clear sky
400,Kumphawapi,TH,17.1087,103.0149,87.69,66,67,7.09,broken clouds
401,Lorengau,PG,-2.0226,147.2712,86.67,64,40,9.93,scattered clouds
402,Jiangyou,CN,31.7667,104.7167,62.56,91,100,3.49,overcast clouds
403,Pamekasan,ID,-7.1568,113.4746,81.63,76,100,4.54,overcast clouds
404,Cap Malheureux,MU,-19.9842,57.6142,74.46,71,71,3.0,broken clouds
405,Tateyama,JP,34.9833,139.8667,61.93,53,40,1.86,scattered clouds
406,Port-Cartier,CA,50.0334,-66.8654,55.62,99,100,7.76,moderate rain
407,Poya,NC,-21.35,165.15,81.14,64,52,6.82,broken clouds
408,Axim,GH,4.8699,-2.2405,77.05,90,100,5.41,light rain
409,Lompoc,US,34.6391,-120.4579,56.59,76,0,14.97,clear sky
410,Ambon,ID,-3.6954,128.1814,87.94,70,20,5.75,few clouds
411,La Rioja,ES,42.25,-2.5,56.98,54,100,8.93,overcast clouds
412,Waipawa,NZ,-41.4122,175.5153,62.33,63,81,8.97,broken clouds
413,Shingu,JP,33.7333,135.9833,66.25,46,100,4.59,overcast clouds
414,Maragogi,BR,-9.0122,-35.2225,75.97,80,97,6.73,overcast clouds
415,Opuwo,NA,-18.0607,13.84,67.39,36,8,3.18,clear sky
416,Maues,BR,-3.3836,-57.7186,78.33,82,100,2.71,overcast clouds
417,Digby,CA,44.6169,-65.7655,63.03,98,100,10.83,overcast clouds
418,Ola,RU,59.5833,151.2833,26.15,65,4,4.12,clear sky
419,Manali,IN,13.1667,80.2667,78.89,71,47,10.0,scattered clouds
420,Urbano Santos,BR,-3.2078,-43.4036,72.81,96,100,2.37,overcast clouds
421,Sheregesh,RU,52.9209,87.9869,37.94,64,96,2.91,overcast clouds
422,Champerico,GT,14.3,-91.9167,80.69,81,83,2.1,broken clouds
423,Hit,IQ,33.6416,42.8251,70.63,52,56,10.54,broken clouds
424,Whitianga,NZ,-36.8333,175.7,64.13,60,100,10.0,overcast clouds
425,Beloha,MG,-25.1667,45.05,69.67,88,16,4.23,few clouds
426,Pangnirtung,CA,66.1451,-65.7125,29.66,96,100,7.34,snow
427,Roma,US,43.2128,-75.4557,58.87,94,100,4.61,overcast clouds
428,Balingasay,PH,16.3573,119.8564,82.04,70,99,1.88,overcast clouds
429,Northam,GB,51.0333,-4.2167,60.39,95,100,15.3,light rain
430,Zyryanskoye,RU,56.8306,86.6258,33.75,96,100,7.29,snow
431,La Asuncion,VE,11.0333,-63.8628,77.68,86,100,5.26,overcast clouds
432,Fare,PF,-16.7,-151.0167,72.73,78,100,18.25,light rain
433,Santa Isabel,BR,-23.3156,-46.2214,67.3,94,0,1.9,clear sky
434,Carora,VE,10.1755,-70.0827,73.78,87,98,1.07,overcast clouds
435,Chifeng,CN,42.2683,118.9636,40.98,23,0,2.59,clear sky
436,Moshi,TZ,-3.35,37.3333,65.98,83,79,3.51,broken clouds
437,Pervomayskiy,RU,53.2485,40.2871,38.71,92,100,13.98,overcast clouds
438,Solginskiy,RU,61.05,41.3428,35.96,93,100,10.18,overcast clouds
439,Kaoma,ZM,-14.7833,24.8,66.92,54,57,4.23,broken clouds
440,Devrek,TR,41.2192,31.9558,55.42,90,89,1.5,overcast clouds
441,La Ronge,CA,55.1001,-105.2842,37.65,81,100,14.97,overcast clouds
442,Zhanakorgan,KZ,43.9098,67.2495,42.46,70,57,5.3,broken clouds
443,Seoul,KR,37.5683,126.9778,63.79,48,0,8.05,clear sky
444,Touros,BR,-5.1989,-35.4608,76.89,77,69,10.51,broken clouds
445,Jaciara,BR,-15.9653,-54.9683,76.66,60,30,4.09,scattered clouds
446,Grindavik,IS,63.8424,-22.4338,39.67,87,0,10.36,clear sky
447,Ningxiang,CN,37.34,111.2052,53.53,59,71,10.04,broken clouds
448,Longhua,CN,23.6137,114.1919,86.25,45,6,1.92,clear sky
449,Moranbah,AU,-22.0016,148.0466,97.43,30,59,14.36,broken clouds
450,Ambilobe,MG,-13.2,49.05,70.81,68,49,3.69,scattered clouds
451,Tammisaari,FI,59.9736,23.4339,46.9,95,44,6.6,scattered clouds
452,Itoman,JP,26.1247,127.6694,82.78,65,40,19.57,scattered clouds
453,Houma,US,29.5958,-90.7195,55.99,89,0,0.0,clear sky
454,Lyngdal,NO,58.1376,7.07,54.9,90,71,8.43,broken clouds
455,Hobyo,SO,5.3505,48.5268,79.03,83,99,8.3,light rain
456,Kavieng,PG,-2.5744,150.7967,84.02,72,100,6.2,light rain
457,Aksu,CN,41.1231,80.2644,53.96,27,2,4.23,clear sky
458,Pacific Grove,US,36.6177,-121.9166,58.01,81,0,21.99,clear sky
459,Richards Bay,ZA,-28.783,32.0377,67.23,81,94,3.18,overcast clouds
460,Mpika,ZM,-11.8343,31.4529,62.64,57,6,4.97,clear sky
461,Pilot Butte,CA,50.4668,-104.4178,33.42,86,0,14.97,clear sky
462,Bethel,US,41.3712,-73.414,63.52,76,0,5.75,clear sky
463,Porto Walter,BR,-8.2686,-72.7439,75.94,87,31,2.55,scattered clouds
464,Khandyga,RU,62.6667,135.6,20.89,92,100,5.68,overcast clouds
465,General Pico,AR,-35.6566,-63.7568,58.82,28,0,9.19,clear sky
466,Sabha,LY,27.0377,14.4283,63.45,44,0,9.44,clear sky
467,Klaksvik,FO,62.2266,-6.589,49.12,96,100,5.84,overcast clouds
468,Saint-Georges,GD,12.0564,-61.7485,82.08,83,40,11.5,scattered clouds
469,Abu Dhabi,AE,24.4667,54.3667,77.02,65,0,1.14,clear sky
470,Rio Gallegos,AR,-51.6226,-69.2181,53.65,26,100,19.57,dust
471,Vizinga,RU,61.0749,50.1031,30.27,89,100,11.5,overcast clouds
472,Rognan,NO,67.0953,15.3878,38.05,96,100,3.51,overcast clouds
473,Mount Isa,AU,-20.7333,139.5,91.17,38,8,10.36,clear sky
474,Veraval,IN,20.9,70.3667,77.85,64,1,7.83,clear sky
475,Nipawin,CA,53.3668,-104.0009,33.84,93,100,16.11,overcast clouds
476,Santander Jimenez,MX,24.2167,-98.4667,68.63,78,6,5.61,clear sky
477,Chupa,RU,66.27,33.0549,30.6,90,67,4.16,broken clouds
478,Troutdale,US,45.5393,-122.3873,50.0,93,100,5.01,overcast clouds
479,Locri,IT,38.2414,16.2623,70.32,45,4,6.2,clear sky
480,Oranjestad,AW,12.524,-70.027,80.55,87,20,3.44,few clouds
481,Moose Factory,CA,51.2585,-80.6094,33.8,93,75,6.91,broken clouds
482,Amzya,RU,56.2354,54.3868,27.54,77,74,4.03,broken clouds
483,Morag,PL,53.9171,19.926,47.64,93,98,5.79,overcast clouds
484,Weinan,CN,34.5036,109.5089,62.69,57,100,6.11,overcast clouds
485,Khorixas,NA,-20.3667,14.9667,63.9,51,2,2.24,clear sky
486,Forestville,US,38.8451,-76.875,61.66,69,40,10.36,scattered clouds
487,Abrau-Dyurso,RU,44.69,37.59,54.86,77,29,7.54,scattered clouds
488,Pisco,PE,-13.7,-76.2167,60.03,82,12,2.3,mist
489,North Platte,US,41.1239,-100.7654,49.37,53,0,18.01,clear sky
490,Qunduz,AF,36.729,68.857,60.62,64,7,1.1,clear sky
491,Fram,PY,-26.9833,-55.8833,66.79,98,100,4.25,overcast clouds
492,Milkovo,RU,54.7167,158.6167,43.79,52,37,10.11,scattered clouds
493,Manaure,CO,11.7751,-72.4445,80.91,78,100,8.43,overcast clouds
494,Kirkuk,IQ,35.4681,44.3922,73.49,42,98,9.98,overcast clouds
495,Bull Savanna,JM,17.8868,-77.5902,74.84,83,100,6.6,overcast clouds
496,Rio Grande,BR,-32.035,-52.0986,65.19,95,100,13.31,moderate rain
497,Hovd,MN,48.0056,91.6419,34.88,46,100,1.97,overcast clouds
498,Sangar,RU,63.9242,127.4739,16.61,94,100,10.67,snow
499,Bururi,BI,-3.85,29.6333,59.92,74,95,2.01,overcast clouds
500,Krasnaya Gora,RU,52.9995,31.6023,47.16,88,97,6.15,overcast clouds
501,Dukat,RU,62.55,155.55,6.21,86,30,3.69,scattered clouds
502,Porto-Vecchio,FR,41.591,9.2795,64.06,94,100,9.22,overcast clouds
503,Anadyr,RU,64.75,177.4833,12.7,78,75,17.9,broken clouds
504,Bardzrashen,AM,40.0853,44.5796,37.69,93,62,1.14,broken clouds
505,Birsk,RU,55.4211,55.5428,26.11,79,33,3.11,scattered clouds
506,Hamilton,US,39.1834,-84.5333,49.8,78,100,4.61,overcast clouds
507,Wenling,CN,28.3669,121.36,65.55,91,100,10.78,overcast clouds
508,Mega,ET,4.05,38.3,61.65,77,76,5.46,broken clouds
509,Harper,LR,4.375,-7.7169,77.0,88,91,5.03,overcast clouds
510,Bumba,CD,2.1833,22.4667,70.03,99,97,1.57,moderate rain
511,Mount Gambier,AU,-37.8333,140.7667,58.91,88,100,19.57,overcast clouds
512,Bambanglipuro,ID,-7.95,110.2833,79.83,72,97,8.41,overcast clouds
513,Yerofey Pavlovich,RU,53.9667,121.9667,32.92,45,5,3.44,clear sky
514,Swift Current,CA,50.2834,-107.8014,32.94,79,44,10.98,scattered clouds
515,Sao Filipe,CV,14.8961,-24.4956,79.14,77,100,6.55,overcast clouds
516,Cockburn Town,TC,21.4612,-71.1419,80.24,66,5,5.48,clear sky
517,Kapoeta,SS,4.7717,33.5903,77.94,63,99,3.13,overcast clouds
518,Sulphur,US,30.2366,-93.3774,53.58,75,0,3.44,clear sky
519,Slavuta,UA,50.3016,26.8651,43.84,96,35,5.48,scattered clouds
520,Kholm-Zhirkovskiy,RU,55.5189,33.4731,42.04,93,100,4.27,overcast clouds
521,Kununurra,AU,-15.7667,128.7333,103.98,16,11,12.66,few clouds
522,Tortoli,IT,39.9256,9.6572,66.02,72,0,6.91,clear sky
523,Batticaloa,LK,7.7102,81.6924,81.97,62,27,4.29,scattered clouds
524,Sobralinho,PT,38.917,-9.0266,69.73,91,75,13.8,broken clouds
525,Puteyets,RU,65.1716,57.091,28.02,89,100,13.4,overcast clouds
526,Izumo,JP,35.3667,132.7667,64.35,67,75,4.61,broken clouds
527,Vidalia,US,32.2177,-82.4135,60.75,72,0,6.91,clear sky
528,Namatanai,PG,-3.6667,152.4333,84.38,70,100,3.83,light rain
529,Terebovlya,UA,49.3019,25.71,45.93,93,57,5.48,broken clouds
530,Teguise,ES,29.0605,-13.564,66.42,88,75,5.75,broken clouds
531,Biograd Na Moru,HR,43.9433,15.4519,60.76,80,0,5.86,clear sky
532,Harer,ET,9.3094,42.1258,57.16,84,16,0.43,few clouds
533,Chapais,CA,49.7834,-74.8492,56.98,92,94,8.03,overcast clouds
534,Petropavlovsk-Kamchatskiy,RU,53.0452,158.6483,48.79,46,40,15.66,scattered clouds
535,Matara,LK,5.9485,80.5353,77.36,81,96,5.32,overcast clouds
536,Hirado,JP,33.3597,129.5531,70.39,52,100,1.72,light rain
537,Palmares Do Sul,BR,-30.2578,-50.5097,66.78,95,100,8.1,heavy intensity rain
538,Gimbi,ET,9.1667,35.8333,54.41,94,97,1.52,overcast clouds
539,Rancho Palos Verdes,US,33.7445,-118.387,64.08,78,7,1.99,clear sky
540,Loukhi,RU,66.0764,33.0381,27.19,95,46,4.27,scattered clouds
541,Sueyoshi,JP,31.65,131.0167,69.49,52,93,3.83,overcast clouds
542,Presidencia Roque Saenz Pena,AR,-26.7852,-60.4388,71.2,72,20,7.76,few clouds
543,Vostok,RU,46.4856,135.8833,38.17,96,100,2.48,overcast clouds
544,Palmer,US,42.1584,-72.3287,65.01,83,75,9.22,broken clouds
545,Abaza,RU,52.655,90.0928,41.31,39,99,2.53,overcast clouds
546,Shaoguan,CN,24.8,113.5833,85.5,36,23,4.23,few clouds
547,Castletown,IE,53.0281,-9.0686,55.89,92,100,12.35,overcast clouds
548,Krasnoarmeysk,RU,51.0239,45.6969,33.46,97,100,16.55,light snow
549,Khandbari,NP,27.3747,87.2039,66.38,73,36,1.72,scattered clouds
550,Hirara,JP,24.8,125.2833,77.27,83,75,9.22,broken clouds
551,Ekuvukeni,ZA,-28.4675,30.1551,59.36,92,70,1.92,broken clouds
552,Seydi,TM,39.4816,62.9137,48.56,57,0,5.68,clear sky
553,Byron Bay,AU,-28.65,153.6167,91.71,59,81,8.19,broken clouds
554,Kestel,TR,40.1983,29.2124,44.08,91,93,5.28,overcast clouds
555,Ahipara,NZ,-35.1667,173.1667,67.8,56,75,9.86,broken clouds
556,Ayr,GB,55.4627,-4.6339,55.31,87,0,10.36,clear sky
557,Ippy,CF,6.2679,21.2247,68.97,81,36,3.87,scattered clouds
558,Pandaria,IN,22.2333,81.4167,71.73,51,0,1.7,clear sky
559,Progreso,MX,21.2833,-89.6667,78.91,86,21,7.61,few clouds
560,Visakhapatnam,IN,17.69,83.2093,82.29,69,20,3.44,haze
561,Jos,NG,9.9167,8.9,62.31,49,22,4.68,few clouds
562,Dolores,AR,-36.3132,-57.6792,55.06,95,11,9.53,moderate rain
563,Sorland,NO,67.667,12.6934,42.66,64,100,7.43,overcast clouds
564,Aleysk,RU,52.4926,82.7822,45.41,81,100,20.92,overcast clouds
565,Menongue,AO,-14.6585,17.691,62.64,90,100,3.74,light rain
566,Port Keats,AU,-14.25,129.55,91.2,52,25,11.61,scattered clouds
567,Mae Ramat,TH,16.984,98.5166,88.81,81,40,2.55,scattered clouds
568,Islamkot,PK,24.6997,70.177,77.83,72,0,7.36,clear sky
569,Owo,NG,7.1962,5.5868,70.54,97,44,1.34,scattered clouds
570,La Paz,BO,-16.5,-68.15,51.78,21,40,2.3,scattered clouds
571,Sal Rei,CV,16.1833,-22.9167,77.7,84,99,13.94,overcast clouds
572,Rio De Jesus,PA,7.9844,-81.1631,73.94,96,87,3.29,overcast clouds
573,Kusti,SD,13.1629,32.6635,78.69,21,56,12.48,broken clouds
574,Puerto Ayacucho,VE,5.6639,-67.6236,77.25,85,76,2.86,broken clouds
575,Batagay,RU,67.6333,134.6333,11.35,80,100,5.53,overcast clouds
576,Igarka,RU,67.4667,86.5833,12.78,96,99,9.73,overcast clouds
577,Umba,RU,66.6871,34.3429,33.21,85,100,6.29,overcast clouds
578,Imeni Poliny Osipenko,RU,52.4201,136.4853,38.21,57,10,10.63,clear sky
579,San Cristobal,VE,7.7669,-72.225,69.98,87,94,2.24,overcast clouds
580,Banda Aceh,ID,5.5577,95.3222,82.47,74,100,11.14,very heavy rain
581,Gladstone,AU,-23.85,151.25,93.13,40,0,11.5,clear sky
582,Sur,OM,22.5667,59.5289,81.09,51,0,1.72,clear sky
583,Mongomo,GQ,1.6274,11.3135,67.5,99,100,0.56,light rain
584,Homer,US,59.6425,-151.5483,35.8,77,0,3.44,clear sky
585,Sibolga,ID,1.7427,98.7792,79.03,85,100,0.89,light rain
586,Shirokiy,RU,49.758,129.523,40.23,41,0,16.02,clear sky
587,Gubkinskiy,RU,64.434,76.5026,15.94,92,27,11.83,scattered clouds
588,Katobu,ID,-4.9408,122.5276,90.01,54,80,4.76,broken clouds
589,Abha,SA,18.2164,42.5053,50.25,28,0,0.0,clear sky
590,Kingsville,US,27.5159,-97.8561,66.15,62,0,5.75,clear sky
591,Olafsvik,IS,64.8945,-23.7142,41.97,81,27,5.95,scattered clouds
592,Kaa-Khem,RU,51.6833,94.7333,32.94,34,100,2.33,overcast clouds
593,Usinsk,RU,65.9939,57.5281,27.73,90,100,21.3,overcast clouds
594,Robertsport,LR,6.7533,-11.3686,80.1,81,84,7.02,light rain
595,Dudinka,RU,69.4058,86.1778,10.0,96,94,11.23,overcast clouds
596,Tual,ID,-5.6667,132.75,84.07,69,100,6.31,overcast clouds
597,Akyab,MM,20.15,92.9,77.92,67,6,7.45,clear sky
598,Bairiki,KI,1.3292,172.9752,82.4,83,75,6.91,light intensity shower rain
599,Kudahuvadhoo,MV,2.6708,72.8944,81.27,77,68,8.41,broken clouds
600,North Adams,US,42.7009,-73.1087,65.73,76,100,11.5,overcast clouds
601,Kamina,CD,-8.7386,24.9906,62.65,95,100,2.51,overcast clouds
602,Irbeyskoye,RU,55.6428,95.4522,36.34,41,24,3.51,few clouds
603,Mackay,AU,-21.15,149.2,82.76,72,45,12.46,scattered clouds
604,Waverly,US,42.7392,-84.6208,44.76,72,100,8.05,overcast clouds
605,Gamba,GA,-2.65,10.0,76.33,91,68,3.94,light rain
606,Praia,CV,14.9215,-23.5087,77.54,83,20,12.66,few clouds
607,Portland,US,45.5234,-122.6762,50.61,91,100,5.01,overcast clouds
608,Kaili,ID,-3.4626,120.2147,74.25,82,100,1.61,overcast clouds
609,Linxia,CN,35.6003,103.2064,54.84,67,56,3.02,broken clouds
610,Ballina,AU,-28.8667,153.5667,91.78,62,70,6.49,broken clouds
611,Harbour Breton,CA,47.4833,-55.7983,54.72,97,100,7.45,overcast clouds
612,Vardo,NO,70.3705,31.1107,31.98,100,100,4.61,overcast clouds
613,Buinsk,RU,54.95,48.2833,32.5,77,100,7.23,overcast clouds
614,Terra Santa,BR,-2.1042,-56.4869,77.81,77,100,3.22,overcast clouds
615,Thiruvananthapuram,IN,8.4833,76.9167,84.18,74,75,3.44,haze
616,Basco,PH,20.4487,121.9702,80.19,67,99,23.49,overcast clouds
617,Sola,VU,-13.8833,167.55,81.57,71,19,5.84,few clouds
618,Alofi,NU,-19.0595,-169.9187,75.09,83,100,10.36,overcast clouds
619,Bluefields,NI,12.0137,-83.7635,78.62,82,98,5.66,overcast clouds
620,Goiatuba,BR,-18.0125,-49.3547,75.43,50,23,5.26,few clouds
621,Dezhou,CN,37.4486,116.2925,63.7,49,13,12.62,few clouds
622,Acajutla,SV,13.5928,-89.8275,78.93,85,85,4.63,overcast clouds
623,Ust-Tsilma,RU,65.441,52.1498,29.41,96,100,8.21,light snow
624,Matadi,CD,-5.8167,13.45,76.95,89,100,2.26,overcast clouds
625,Kalga,RU,50.9251,118.898,36.03,28,0,5.23,clear sky
626,Carauari,BR,-4.8828,-66.8958,76.75,90,89,3.24,overcast clouds
627,Conceicao Da Barra,BR,-18.5933,-39.7322,71.02,89,0,4.21,clear sky
628,Kargasok,RU,59.0556,80.8572,29.34,95,100,11.7,light snow
629,Olinda,BR,-8.0089,-34.8553,78.53,73,75,5.75,broken clouds
630,Mersing,MY,2.4312,103.8405,85.91,74,40,4.61,light rain
631,Sire,NG,12.9299,5.2043,75.31,22,24,9.62,few clouds
632,Sioux Lookout,CA,50.1001,-91.917,32.07,80,100,6.91,overcast clouds
633,Zavetnoye,RU,47.1194,43.8903,47.43,80,100,19.91,light rain
634,Zyryanovsk,KZ,49.7386,84.2719,37.58,96,100,1.48,overcast clouds
635,Sao Felix Do Xingu,BR,-6.6447,-51.995,72.05,95,99,1.12,overcast clouds
636,Duku,NG,11.2361,4.9073,73.17,37,16,5.35,few clouds
637,Ayan,RU,56.45,138.1667,35.73,44,0,10.89,clear sky
638,Palu,ID,-0.8917,119.8707,77.52,94,100,3.06,heavy intensity rain
639,Jiwani,PK,25.05,61.7417,83.34,40,0,10.27,clear sky
640,Wucheng,CN,29.6008,118.175,58.96,90,100,2.39,overcast clouds
641,Sudak,UA,44.85,34.9667,57.61,71,23,9.84,few clouds
642,Llanes,ES,43.4198,-4.7549,73.89,55,99,9.62,overcast clouds
643,Gushikawa,JP,26.3544,127.8686,81.99,62,40,19.57,scattered clouds
644,Doctor Cecilio Baez,PY,-25.05,-56.3167,70.97,92,100,5.7,light rain
645,Istisu,AZ,40.9457,48.0738,39.87,61,100,3.51,overcast clouds
646,Kerman,IR,30.2832,57.0788,44.46,36,0,4.61,clear sky
647,Acari,PE,-15.4311,-74.6158,65.34,74,44,4.0,scattered clouds
648,Kutum,SD,14.2,24.6667,64.33,33,67,7.2,broken clouds
649,Tadine,NC,-21.55,167.8833,78.28,69,43,8.88,scattered clouds
650,Wao,PH,7.6833,124.6833,73.63,85,100,2.73,overcast clouds
651,Gobabis,NA,-22.45,18.9667,69.75,42,16,3.71,few clouds
652,Samarai,PG,-10.6167,150.6667,84.49,63,4,10.8,clear sky
653,Natal,BR,-5.795,-35.2094,77.22,83,20,5.75,few clouds
654,Pundaguitan,PH,6.3711,126.1689,84.6,69,91,8.97,overcast clouds
655,Vanimo,PG,-2.6741,141.3028,85.77,67,98,7.43,overcast clouds
656,Jan Kempdorp,ZA,-27.9225,24.8305,68.59,33,35,8.03,scattered clouds
657,Saint Anthony,US,45.0205,-93.218,45.19,71,0,6.91,clear sky
658,Tarogong,ID,-7.1902,107.8874,84.94,66,57,2.19,light rain
659,Aripuana,BR,-9.1667,-60.6333,79.0,74,98,1.88,overcast clouds
660,Sedan,FR,49.6667,5.0,56.71,93,59,4.61,broken clouds
661,Japura,ID,-0.3167,102.35,78.48,85,100,3.53,overcast clouds
662,Kazerun,IR,29.6195,51.6541,69.67,29,67,3.11,broken clouds
663,Christchurch,NZ,-43.5333,172.6333,55.9,68,75,11.5,light rain
664,Porto Novo,BJ,6.4965,2.6036,78.62,88,46,2.35,scattered clouds
665,Nagua,DO,19.3832,-69.8474,74.46,87,30,2.64,scattered clouds
666,Nioki,CD,-2.7167,17.6833,68.0,98,100,2.39,light rain
667,Omboue,GA,-1.5746,9.2618,76.66,91,100,4.56,light rain
668,Sokoni,TZ,-6.4333,39.55,77.83,77,78,11.12,broken clouds
669,Beringovskiy,RU,63.05,179.3167,22.86,66,60,27.81,broken clouds
670,Beldanga,IN,23.9333,88.25,79.21,62,10,4.25,clear sky
671,Keti Bandar,PK,24.1447,67.4497,79.54,76,0,5.59,clear sky
672,Inhambane,MZ,-23.865,35.3833,76.98,88,40,3.44,scattered clouds
673,Uni,RU,57.7535,51.4923,26.76,88,96,9.04,overcast clouds
674,Altay,CN,47.8667,88.1167,43.9,58,95,0.92,overcast clouds
675,Dalby,AU,-27.1833,151.2667,93.97,27,0,5.99,clear sky
676,Gazojak,TM,41.1875,61.4036,45.63,72,17,6.98,few clouds
677,Grand Gaube,MU,-20.0064,57.6608,75.6,71,78,3.0,broken clouds
678,Novorudnyy,RU,51.5026,58.1873,27.73,77,10,3.24,clear sky
679,Sobolevo,RU,54.4299,31.8996,46.29,92,99,5.03,overcast clouds
680,Ciudad Bolivar,VE,8.1222,-63.5497,79.36,82,95,5.12,overcast clouds
681,Princeton,US,25.5384,-80.4089,77.02,87,0,0.0,clear sky
