City_ID,City,Country,Lat,Lng,Max Temp,Humidity,Cloudiness,Wind Speed,Current Description
0,Maceio,BR,-9.6658,-35.7353,72.84,94,0,4.61,clear sky
1,Pong,TH,19.1493,100.2752,88.61,56,32,1.34,scattered clouds
2,Cape Town,ZA,-33.9258,18.4232,61.92,75,0,11.99,clear sky
3,Vaini,TO,-21.2,-175.2,73.56,68,75,6.91,broken clouds
4,Mezen,RU,65.8522,44.24,30.24,90,80,8.23,broken clouds
5,Sorel,CA,46.0418,-73.1136,65.75,93,60,4.29,broken clouds
6,Saltillo,MX,25.4167,-101.0,58.28,57,0,2.84,clear sky
7,Rikitea,PF,-23.1203,-134.9692,72.84,82,71,12.06,broken clouds
8,Kolaras,IN,25.2333,77.6,76.24,41,0,6.15,clear sky
9,Tarnos,FR,43.5417,-1.4628,64.8,75,0,5.75,clear sky
10,Arraial Do Cabo,BR,-22.9661,-42.0278,70.18,79,9,7.99,clear sky
11,Bluff,NZ,-46.6,168.3333,50.81,90,100,6.93,overcast clouds
12,Cherskiy,RU,68.75,161.3,5.22,95,100,3.91,overcast clouds
13,Hermanus,ZA,-34.4187,19.2345,58.8,81,100,12.12,overcast clouds
14,Pailon,BO,-17.65,-62.75,81.5,61,61,6.93,broken clouds
15,Narsaq,GL,60.9167,-46.05,26.82,69,18,7.25,few clouds
16,Jamestown,US,42.097,-79.2353,62.19,84,0,13.8,clear sky
17,Pevek,RU,69.7008,170.3133,-0.18,92,49,5.3,scattered clouds
18,Ushuaia,AR,-54.8,-68.3,40.66,87,100,6.91,moderate rain
19,Albany,US,42.6001,-73.9662,64.63,92,43,4.68,scattered clouds
20,Bulgan,MN,48.8125,103.5347,26.37,72,6,3.76,clear sky
21,Ilulissat,GL,69.2167,-51.1,28.42,86,100,3.44,overcast clouds
22,Calafell,ES,41.2,1.5683,67.86,96,90,3.0,overcast clouds
23,Mandapam,IN,9.2833,79.1167,83.34,68,33,8.68,scattered clouds
24,Hilo,US,19.7297,-155.09,77.25,81,20,4.61,few clouds
25,Yellowknife,CA,62.456,-114.3525,21.72,86,100,11.5,light snow
26,Nome,US,64.5011,-165.4064,30.27,65,20,23.02,few clouds
27,Lata,PT,40.1629,-8.3327,60.08,95,6,4.63,clear sky
28,San Patricio,US,28.017,-97.5169,64.26,34,9,5.57,clear sky
29,Matay,EG,28.419,30.7792,65.66,82,4,5.82,clear sky
30,Samana,DO,19.2056,-69.3369,73.56,91,100,2.19,overcast clouds
31,Waipawa,NZ,-41.4122,175.5153,59.18,62,83,15.73,broken clouds
32,Tiksi,RU,71.6872,128.8694,17.64,87,100,16.28,overcast clouds
33,Maubin,MM,16.7333,95.65,86.18,68,81,2.46,broken clouds
34,Asau,RO,46.4333,26.4,51.28,78,67,3.2,broken clouds
35,Punta Arenas,CL,-53.15,-70.9167,44.71,70,100,5.75,overcast clouds
36,Ko Samui,TH,9.5357,99.9357,87.71,74,20,8.05,few clouds
37,Matara,LK,5.9485,80.5353,82.36,73,100,3.87,light rain
38,Shakawe,BW,-18.3667,21.85,73.24,56,100,3.4,overcast clouds
39,Nikolskoye,RU,59.7035,30.7861,39.09,97,100,5.21,overcast clouds
40,Atambua,ID,-9.1061,124.8925,86.22,56,100,5.41,overcast clouds
41,Dunedin,NZ,-45.8742,170.5036,51.8,87,100,10.0,light rain
42,Raahe,FI,64.6833,24.4833,33.89,89,100,9.84,overcast clouds
43,Ondjiva,AO,-17.0667,15.7333,72.37,59,97,3.36,overcast clouds
44,San Cristobal,VE,7.7669,-72.225,66.38,99,100,2.35,light rain
45,Souillac,MU,-20.5167,57.5167,75.58,73,75,11.5,light rain
46,Kutum,SD,14.2,24.6667,62.38,27,1,8.14,clear sky
47,Pochutla,MX,15.7432,-96.4661,78.82,93,92,2.64,overcast clouds
48,Georgetown,MY,5.4112,100.3354,85.95,77,20,9.22,few clouds
49,Isangel,VU,-19.55,169.2667,78.91,78,75,6.91,broken clouds
50,Busselton,AU,-33.65,115.3333,61.79,59,80,9.19,broken clouds
51,Carupano,VE,10.6678,-63.2585,78.6,88,65,6.04,broken clouds
52,Ponta Do Sol,PT,32.6667,-17.1,72.01,90,61,8.59,light rain
53,Atuona,PF,-9.8,-139.0333,77.29,72,4,17.74,clear sky
54,Khatanga,RU,71.9667,102.5,1.2,98,96,1.45,overcast clouds
55,Mar Del Plata,AR,-38.0023,-57.5575,60.94,88,0,15.01,light rain
56,Touros,BR,-5.1989,-35.4608,76.93,74,39,10.98,scattered clouds
57,Airai,TL,-8.9266,125.4092,77.68,48,100,2.26,overcast clouds
58,Mudgee,AU,-32.5943,149.5871,66.74,71,98,10.51,overcast clouds
59,Vangaindrano,MG,-23.35,47.6,74.43,77,67,10.29,broken clouds
60,Kavieng,PG,-2.5744,150.7967,84.65,70,99,6.08,overcast clouds
61,Iracoubo,GF,5.4802,-53.2011,78.39,81,48,5.48,scattered clouds
62,Sangar,RU,63.9242,127.4739,20.3,93,95,2.3,overcast clouds
63,Mataura,NZ,-46.1927,168.8643,50.49,97,100,3.53,overcast clouds
64,Lorengau,PG,-2.0226,147.2712,86.38,60,98,6.42,overcast clouds
65,Saint Anthony,US,45.0205,-93.218,42.15,84,0,0.0,clear sky
66,Sitka,US,57.0531,-135.33,42.69,75,100,6.46,overcast clouds
67,Kapaa,US,22.0752,-159.319,77.32,89,40,6.91,light rain
68,Thompson,CA,55.7435,-97.8558,24.96,86,100,9.22,light snow
69,Coquimbo,CL,-29.9533,-71.3436,51.53,93,20,2.3,few clouds
70,Lagoa,PT,39.05,-27.9833,62.6,68,58,25.81,light rain
71,Bengkulu,ID,-3.8004,102.2655,76.14,90,100,1.77,overcast clouds
72,Barrow,US,71.2906,-156.7887,23.02,86,100,24.16,overcast clouds
73,Roald,NO,62.5833,6.1333,55.76,93,75,10.36,light intensity drizzle
74,Hithadhoo,MV,-0.6,73.0833,82.53,73,45,11.61,scattered clouds
75,Iqaluit,CA,63.7506,-68.5145,31.73,86,100,28.77,light snow
76,Hoyanger,NO,61.2204,6.0749,49.5,91,99,2.57,overcast clouds
77,Tasiilaq,GL,65.6145,-37.6368,32.16,93,100,4.36,overcast clouds
78,Fairbanks,US,64.8378,-147.7164,22.82,79,20,10.36,few clouds
79,Butaritari,KI,3.0707,172.7902,82.36,73,55,5.57,light rain
80,Victoria,HK,22.2855,114.1577,81.97,58,83,8.99,broken clouds
81,Port Elizabeth,ZA,-33.918,25.5701,62.89,87,75,8.05,broken clouds
82,Mattru,SL,7.6244,-11.8332,73.47,97,53,1.14,broken clouds
83,Poroszlo,HU,47.65,20.6667,51.84,86,5,1.34,clear sky
84,Katsuura,JP,35.1333,140.3,62.13,59,67,22.84,broken clouds
85,Carnarvon,AU,-24.8667,113.6333,73.11,49,0,19.22,clear sky
86,Severo-Kurilsk,RU,50.6789,156.125,41.59,65,3,9.71,clear sky
87,Porto Novo,BJ,6.4965,2.6036,75.02,86,100,2.84,overcast clouds
88,Bredasdorp,ZA,-34.5322,20.0403,60.84,77,100,10.83,overcast clouds
89,Talnakh,RU,69.4865,88.3972,5.49,96,87,2.86,overcast clouds
90,Puerto Ayora,EC,-0.7393,-90.3518,66.54,91,73,4.0,broken clouds
91,Sovetskiy,RU,61.3614,63.5842,27.27,80,23,4.9,few clouds
92,Saint-Joseph,RE,-21.3667,55.6167,75.58,62,7,8.57,clear sky
93,Alta Floresta,BR,-9.8756,-56.0861,72.34,88,100,2.01,overcast clouds
94,Kuantan,MY,3.8077,103.326,82.98,78,20,1.14,moderate rain
95,Oistins,BB,13.0667,-59.5333,84.29,79,75,23.02,broken clouds
96,Sabha,LY,27.0377,14.4283,65.01,46,0,8.39,clear sky
97,Port Alfred,ZA,-33.5906,26.891,59.18,96,100,8.57,moderate rain
98,Sao Filipe,CV,14.8961,-24.4956,78.13,78,100,6.24,overcast clouds
99,Hobart,AU,-42.8794,147.3294,61.27,98,100,12.66,light intensity drizzle
100,Tuktoyaktuk,CA,69.4541,-133.0374,14.0,85,100,12.66,light snow
101,Sivaki,RU,52.6333,126.75,38.21,31,14,15.12,few clouds
102,Texarkana,US,33.4251,-94.0477,52.02,73,0,3.44,clear sky
103,Aquiraz,BR,-3.9014,-38.3911,79.18,81,62,9.8,broken clouds
104,Atherton,GB,53.5237,-2.4935,59.9,89,100,5.99,overcast clouds
105,Upernavik,GL,72.7868,-56.1549,23.04,96,100,2.95,light snow
106,Karla,EE,59.3723,24.9275,51.57,98,100,6.91,overcast clouds
107,Jiexiu,CN,37.0244,111.9125,63.79,39,100,2.3,overcast clouds
108,Tomohon,ID,1.3346,124.8392,81.54,66,95,4.12,overcast clouds
109,Issenye,TZ,-2.0,34.3333,67.98,58,100,3.87,overcast clouds
110,Telimele,GN,10.9167,-13.3333,69.37,90,5,2.57,clear sky
111,Aborlan,PH,9.4352,118.5492,89.67,68,100,3.38,overcast clouds
112,Salvador,SV,13.8333,-88.9167,72.05,98,98,0.63,overcast clouds
113,Avarua,CK,-21.2078,-159.775,75.25,64,75,4.61,broken clouds
114,Jataizinho,BR,-23.2542,-50.98,70.38,73,0,2.3,clear sky
115,Bo Rai,TH,12.5728,102.5371,91.67,65,100,7.78,overcast clouds
116,Mayo,US,38.8876,-76.5119,60.19,95,100,0.0,mist
117,Qaanaaq,GL,77.484,-69.3632,17.56,94,100,11.95,light snow
118,Longyearbyen,SJ,78.2186,15.6401,12.04,73,0,9.22,clear sky
119,Hope,US,33.6671,-93.5916,51.85,61,0,4.83,clear sky
120,Los Llanos De Aridane,ES,28.6585,-17.9182,64.15,73,0,6.91,clear sky
121,Keningau,MY,5.3378,116.1602,87.64,58,100,4.07,overcast clouds
122,Chicama,PE,-7.8447,-79.1469,57.74,83,78,5.66,broken clouds
123,Ribeira Grande,PT,38.5167,-28.7,63.77,66,72,11.99,broken clouds
124,Atar,MR,20.5169,-13.0499,82.89,15,100,6.02,overcast clouds
125,Torbay,CA,47.6666,-52.7314,55.27,90,20,12.66,few clouds
126,Geraldton,AU,-28.7667,114.6,72.01,40,2,8.05,clear sky
127,Castro,BR,-24.7911,-50.0119,59.34,88,71,8.99,broken clouds
128,New Norfolk,AU,-42.7826,147.0587,60.91,81,100,1.01,overcast clouds
129,Honningsvag,NO,70.9821,25.9704,35.35,80,75,14.97,broken clouds
130,Bethel,US,41.3712,-73.414,66.29,90,100,0.0,mist
131,Loughrea,IE,53.1969,-8.5669,53.46,87,82,17.38,broken clouds
132,Sola,VU,-13.8833,167.55,80.37,72,10,1.3,clear sky
133,San Juan De Uraba,CO,8.7592,-76.5297,75.94,93,100,5.79,moderate rain
134,Ust-Nera,RU,64.5667,143.2,18.82,91,100,12.28,light snow
135,Bambous Virieux,MU,-20.3428,57.7575,77.22,73,75,11.5,light rain
136,Dikson,RU,73.5069,80.5464,25.07,70,100,2.77,light snow
137,Tagusao,PH,9.1924,117.8141,83.75,74,97,3.98,overcast clouds
138,Umm Lajj,SA,25.0213,37.2685,77.5,62,1,7.94,clear sky
139,Gravdal,NO,68.1214,13.5031,31.89,93,75,3.44,broken clouds
140,Saldanha,ZA,-33.0117,17.9442,50.05,86,37,7.81,scattered clouds
141,Te Anau,NZ,-45.4167,167.7167,55.58,68,100,5.21,overcast clouds
142,Kodiak,US,57.79,-152.4072,49.51,76,75,13.8,light rain
143,Selkirk,CA,50.1436,-96.8845,36.09,90,76,6.69,broken clouds
144,Yulara,AU,-25.2406,130.9889,85.15,16,0,11.72,clear sky
145,Rawson,AR,-43.3002,-65.1023,58.84,50,77,12.66,broken clouds
146,Baruun-Urt,MN,46.6806,113.2792,33.3,23,0,5.21,clear sky
147,Ust-Omchug,RU,61.15,149.6333,15.06,82,23,4.56,few clouds
148,Ha Tinh,VN,18.3333,105.9,74.23,89,99,6.93,overcast clouds
149,Rondonopolis,BR,-16.4708,-54.6356,78.01,65,0,2.73,clear sky
150,George,ZA,-33.963,22.4617,56.75,100,75,6.91,light intensity drizzle
151,Lompoc,US,34.6391,-120.4579,55.53,84,0,11.5,clear sky
152,Oussouye,SN,12.485,-16.5469,78.12,83,50,5.66,scattered clouds
153,Banes,CU,20.9625,-75.7186,74.41,83,1,1.9,clear sky
154,Sechura,PE,-5.5569,-80.8222,62.4,83,36,12.19,scattered clouds
155,Florianopolis,BR,-27.6146,-48.5012,67.23,82,75,6.91,broken clouds
156,Cabo San Lucas,MX,22.8909,-109.9124,78.1,70,2,6.4,clear sky
157,Poum,NC,-20.2333,164.0167,77.02,76,2,7.76,clear sky
158,Tessalit,ML,20.1986,1.0114,73.49,20,7,12.03,clear sky
159,Perg,AT,48.25,14.6333,50.25,82,100,1.7,light rain
160,Port-Gentil,GA,-0.7193,8.7815,78.98,84,100,6.35,light rain
161,Okha,RU,53.5739,142.9478,42.31,65,88,7.78,overcast clouds
162,Sharjah,AE,25.3573,55.4033,82.38,73,0,5.75,haze
163,Saint-Philippe,RE,-21.3585,55.7679,76.59,70,16,13.0,few clouds
164,Natal,BR,-5.795,-35.2094,77.65,78,75,6.91,broken clouds
165,Trincomalee,LK,8.5711,81.2335,81.57,70,61,1.97,broken clouds
166,Strelka,RU,58.0728,93.0344,36.28,53,27,7.52,scattered clouds
167,Camacha,PT,33.0833,-16.3333,67.42,88,20,13.8,few clouds
168,Pitimbu,BR,-7.4706,-34.8086,77.59,79,30,9.73,scattered clouds
169,Pacific Grove,US,36.6177,-121.9166,56.01,83,0,8.99,clear sky
170,Bennington,US,42.8781,-73.1968,64.51,89,0,0.0,clear sky
171,Chapais,CA,49.7834,-74.8492,58.78,90,97,9.04,overcast clouds
172,Eyrarbakki,IS,63.863,-21.1481,46.45,75,100,12.19,overcast clouds
173,Emerald,AU,-23.5333,148.1667,93.27,19,86,7.58,overcast clouds
174,Verkhnyaya Sinyachikha,RU,57.976,61.6673,26.58,83,9,5.46,clear sky
175,Nanortalik,GL,60.1432,-45.2371,33.3,73,15,1.36,few clouds
176,Saint George,US,37.1041,-113.5841,57.94,42,0,5.01,clear sky
177,Corcoran,US,36.098,-119.5604,61.39,28,52,4.68,broken clouds
178,Mahon,ES,39.8885,4.2658,68.56,100,0,6.91,clear sky
179,Batuan,PH,9.7808,124.1484,76.96,89,100,1.45,moderate rain
180,Launceston,AU,-41.45,147.1667,67.64,68,100,17.27,overcast clouds
181,Kahului,US,20.8947,-156.47,82.42,77,20,16.11,few clouds
182,Provideniya,RU,64.3833,-173.3,26.71,59,40,8.95,scattered clouds
183,Uruzgan,AF,32.8333,66.0,63.34,19,3,4.16,clear sky
184,Lumeje,AO,-11.55,20.7833,66.85,76,52,3.51,light rain
185,Caceres,ES,39.522,-6.3748,59.05,84,71,3.87,broken clouds
186,Atasu,KZ,48.6814,71.6433,42.6,46,100,13.4,overcast clouds
187,Inirida,CO,3.8653,-67.9239,77.36,84,96,3.06,overcast clouds
188,Bayaguana,DO,18.7564,-69.6362,75.94,97,100,1.01,overcast clouds
189,College,US,64.8569,-147.8028,22.8,78,40,10.36,scattered clouds
190,Sinnamary,GF,5.3833,-52.95,78.39,82,43,5.39,scattered clouds
191,Yongchang,CN,30.0381,119.7317,57.94,78,100,1.19,overcast clouds
192,Puerto Leguizamo,CO,-0.1934,-74.7819,72.77,96,99,2.04,overcast clouds
193,Beni,CD,0.5,29.4667,61.18,99,100,1.72,overcast clouds
194,Kieta,PG,-6.2167,155.6333,82.69,79,24,2.19,light rain
195,Zyryanka,RU,65.75,150.85,21.15,83,93,2.53,overcast clouds
196,Luoyang,CN,34.6836,112.4536,60.06,66,100,4.09,overcast clouds
197,Kavaratti,IN,10.5669,72.642,82.58,60,20,8.72,few clouds
198,Belle Fourche,US,44.6714,-103.8522,42.44,64,1,9.69,clear sky
199,Santa Cruz,BO,-17.8,-63.1667,80.06,74,92,11.5,overcast clouds
200,Megion,RU,61.0296,76.1136,30.22,87,97,13.73,overcast clouds
201,Anton Lizardo,MX,19.05,-95.9833,80.22,75,24,23.82,few clouds
202,Sao Sepe,BR,-30.1606,-53.5653,58.08,89,50,7.83,scattered clouds
203,Kongwa,TZ,-6.2,36.4167,67.62,75,97,5.82,overcast clouds
204,Sozimskiy,RU,59.7418,52.2482,25.84,97,26,3.98,scattered clouds
205,Upington,ZA,-28.4478,21.2561,61.18,31,0,4.61,clear sky
206,Luderitz,NA,-26.6481,15.1594,60.1,68,61,12.35,broken clouds
207,Muros,ES,42.7762,-9.0603,65.08,83,92,19.44,overcast clouds
208,Salamiyah,SY,35.0113,37.0532,68.79,43,98,11.3,overcast clouds
209,Egvekinot,RU,66.3167,-179.1667,6.53,80,11,5.77,few clouds
210,Portobelo,PA,9.55,-79.65,76.96,85,95,1.81,light rain
211,Leighton Buzzard,GB,51.9172,-0.658,60.39,92,91,15.1,overcast clouds
212,Pekan,MY,3.4836,103.3996,82.96,89,100,4.56,overcast clouds
213,Kaitangata,NZ,-46.2817,169.8464,50.4,89,100,6.49,overcast clouds
214,Oranjemund,NA,-28.55,16.4333,56.03,93,21,10.27,few clouds
215,Borogontsy,RU,62.6683,131.1683,26.74,90,100,6.53,overcast clouds
216,Chuy,UY,-33.6971,-53.4616,59.83,91,86,12.8,overcast clouds
217,Batagay-Alyta,RU,67.8006,130.4114,17.42,69,100,6.08,overcast clouds
218,Deputatskiy,RU,69.3,139.9,12.88,86,95,21.61,overcast clouds
219,Kanniyakumari,IN,8.0833,77.5667,83.23,69,98,3.47,overcast clouds
220,Chokurdakh,RU,70.6333,147.9167,9.36,95,100,2.66,light snow
221,Tiznit,MA,29.5833,-9.5,76.37,17,100,12.17,overcast clouds
222,The Valley,AI,18.217,-63.0578,82.26,79,100,19.35,overcast clouds
223,Sibolga,ID,1.7427,98.7792,82.85,74,85,3.15,overcast clouds
224,Novo Aripuana,BR,-5.1206,-60.3797,74.7,96,98,2.3,overcast clouds
225,Lamar,US,33.6668,-95.5836,49.35,71,0,3.44,clear sky
226,Redmond,US,47.674,-122.1215,48.7,92,100,4.0,overcast clouds
227,Puerto Penasco,MX,31.3167,-113.5333,75.18,22,0,7.65,clear sky
228,Komsomolskiy,UZ,40.4272,71.7189,59.72,58,75,23.02,broken clouds
229,Raudeberg,NO,61.9875,5.1352,49.96,1,96,14.97,overcast clouds
230,Vao,NC,-22.6667,167.4833,71.44,81,100,16.28,overcast clouds
231,Pisco,PE,-13.7,-76.2167,59.05,88,0,12.66,clear sky
232,Yeppoon,AU,-23.1333,150.7333,91.18,39,64,5.3,broken clouds
233,Namibe,AO,-15.1961,12.1522,67.24,87,26,8.68,scattered clouds
234,Faya,SA,18.3851,42.4509,57.72,62,1,2.3,clear sky
235,Midland,US,31.9974,-102.0779,54.63,48,0,5.75,clear sky
236,Valparaiso,CL,-33.0393,-71.6273,51.44,93,40,2.3,scattered clouds
237,Hofn,IS,64.2539,-15.2082,42.13,82,100,13.58,overcast clouds
238,Padang,ID,-0.9492,100.3543,86.05,71,100,4.43,overcast clouds
239,Hwange,ZW,-18.3693,26.5019,81.77,34,26,4.72,scattered clouds
240,Esperance,AU,-33.8667,121.9,63.48,59,44,15.03,scattered clouds
241,Port Lincoln,AU,-34.7333,135.8667,61.86,69,86,17.9,overcast clouds
242,Calama,CL,-22.4667,-68.9333,41.49,24,0,12.66,clear sky
243,Vytegra,RU,61.0064,36.4481,32.72,80,98,11.54,overcast clouds
244,Beruwala,LK,6.4788,79.9828,82.06,73,96,3.06,overcast clouds
245,Lebu,CL,-37.6167,-73.65,53.96,98,100,8.16,overcast clouds
246,Shingu,JP,33.7333,135.9833,63.84,48,0,4.94,clear sky
247,Karratha,AU,-20.7377,116.8463,90.84,21,0,16.93,clear sky
248,Swan Hill,AU,-35.3378,143.5544,64.08,71,99,12.03,overcast clouds
249,East London,ZA,-33.0153,27.9116,59.94,82,0,4.61,clear sky
250,Encruzilhada Do Sul,BR,-30.5439,-52.5219,53.73,96,27,3.91,scattered clouds
251,Zaozerne,UA,45.1582,33.2787,61.02,85,100,19.8,light rain
252,Naze,JP,28.3667,129.4833,76.12,58,98,15.48,overcast clouds
253,Kempele,FI,64.9131,25.5034,33.82,93,100,8.05,overcast clouds
254,Mount Gambier,AU,-37.8333,140.7667,60.71,94,100,16.11,mist
255,Port Shepstone,ZA,-30.7414,30.455,67.53,79,100,14.58,light rain
256,Bure,ET,10.7,37.0667,59.9,87,55,0.6,broken clouds
257,Villers-Les-Nancy,FR,48.671,6.1508,59.9,87,0,13.8,clear sky
258,Wewak,PG,-3.5534,143.6268,84.24,70,96,7.0,overcast clouds
259,Musoma,TZ,-1.5,33.8,72.09,54,100,4.76,overcast clouds
260,Faanui,PF,-16.4833,-151.75,79.57,76,98,22.66,light rain
261,Sabang,ID,5.8933,95.3214,81.91,77,100,12.71,overcast clouds
262,Aklavik,CA,68.2191,-135.0107,5.22,98,87,6.85,overcast clouds
263,Buin,CL,-33.7333,-70.75,56.73,90,8,2.26,clear sky
264,Cockburn Town,TC,21.4612,-71.1419,79.52,70,100,2.91,light rain
265,Berlevag,NO,70.8578,29.0864,33.8,80,100,5.97,overcast clouds
266,Rusape,ZW,-18.5278,32.1284,75.51,45,0,3.22,clear sky
267,Lazaro Cardenas,MX,17.9583,-102.2,79.16,86,44,3.98,scattered clouds
268,Ancud,CL,-41.8697,-73.8203,50.16,94,89,10.89,light rain
269,Xichang,CN,27.8964,102.2634,71.6,73,69,4.03,broken clouds
270,Tanout,NE,14.9709,8.8879,72.72,16,17,13.65,few clouds
271,Iwanai,JP,42.9744,140.5089,52.43,48,0,4.12,clear sky
272,Cocal,BR,-28.6167,-49.35,58.21,96,22,3.31,few clouds
273,Hamilton,US,39.1834,-84.5333,61.75,94,100,8.05,mist
274,Margate,GB,51.3813,1.3862,61.9,86,75,4.0,broken clouds
275,Haines Junction,CA,60.7522,-137.5108,15.75,86,84,2.3,broken clouds
276,Praia Da Vitoria,PT,38.7333,-27.0667,62.76,88,20,15.19,few clouds
277,Mahebourg,MU,-20.4081,57.7,77.25,73,75,11.5,broken clouds
278,Omsukchan,RU,62.5333,155.8,12.63,72,2,14.83,clear sky
279,Arman,RU,59.7,150.1667,26.78,81,11,4.45,few clouds
280,Sobolevo,RU,54.4299,31.8996,43.48,97,100,6.91,overcast clouds
281,Quatre Cocos,MU,-20.2078,57.7625,77.09,74,28,14.45,light rain
282,Novska,HR,45.3406,16.9769,51.49,92,51,2.75,broken clouds
283,Salalah,OM,17.0151,54.0924,78.89,50,0,1.14,clear sky
284,Uchiza,PE,-8.4592,-76.4633,71.74,94,90,1.01,overcast clouds
285,Emba,KZ,48.8264,58.1442,34.97,65,69,19.17,broken clouds
286,Alim,PH,9.5649,122.4876,84.54,74,100,8.08,light rain
287,Bakuriani,GE,41.7497,43.5325,43.7,60,23,4.61,few clouds
288,Kozhva,RU,65.1073,57.0459,24.75,93,99,6.24,overcast clouds
289,Meulaboh,ID,4.1363,96.1285,81.82,76,100,3.53,overcast clouds
290,Rawah,IQ,34.4816,41.9093,73.18,19,100,5.86,overcast clouds
291,Grand-Santi,GF,4.25,-54.3833,72.14,98,78,1.63,broken clouds
292,Birjand,IR,32.8663,59.2211,57.67,33,0,11.5,clear sky
293,Ossora,RU,59.2353,163.0719,38.23,69,100,26.66,overcast clouds
294,Vostok,RU,46.4856,135.8833,48.49,39,31,3.53,scattered clouds
295,Aksarka,RU,66.5606,67.7975,21.81,87,95,7.52,overcast clouds
296,Sioux Lookout,CA,50.1001,-91.917,32.07,80,40,8.05,scattered clouds
297,Codrington,AU,-38.2667,141.9667,60.21,91,100,12.24,overcast clouds
298,Rongcheng,CN,30.634,117.8517,59.79,74,100,3.98,overcast clouds
299,Constitucion,CL,-35.3333,-72.4167,54.63,92,75,7.2,broken clouds
300,Dandong,CN,40.1292,124.3947,60.01,57,52,10.74,broken clouds
301,Bijar,IR,35.8668,47.6051,52.34,43,5,1.57,clear sky
302,Port Hardy,CA,50.6996,-127.4199,37.58,100,20,6.91,few clouds
303,Murgab,TM,37.4966,61.9714,53.47,87,75,0.0,mist
304,Bredy,RU,52.4153,60.3411,29.16,84,100,18.68,overcast clouds
305,Quelimane,MZ,-17.8786,36.8883,75.15,88,0,8.05,clear sky
306,Rockhampton,AU,-23.3833,150.5,91.29,24,0,8.05,clear sky
307,Ashland,US,40.8167,-82.2665,64.96,61,100,12.03,overcast clouds
308,Chifeng,CN,42.2683,118.9636,49.41,37,99,16.26,overcast clouds
309,Laje,BR,-10.1833,-40.9667,70.75,92,100,5.44,overcast clouds
310,Okhotsk,RU,59.3833,143.3,28.6,53,23,9.13,few clouds
311,Jardim,BR,-21.4803,-56.1381,70.0,58,0,3.22,clear sky
312,Havelock,US,34.8791,-76.9013,64.38,92,100,5.75,mist
313,Hualmay,PE,-11.0964,-77.6139,60.39,89,24,9.91,few clouds
314,Tiarei,PF,-17.5333,-149.3333,80.62,80,93,18.77,overcast clouds
315,Nelson Bay,AU,-32.7167,152.15,83.08,45,91,8.01,overcast clouds
316,Cidreira,BR,-30.1811,-50.2056,64.87,87,4,21.92,clear sky
317,Ambon,ID,-3.6954,128.1814,89.74,66,40,8.05,scattered clouds
318,Binzhou,CN,37.3667,118.0167,68.31,30,100,8.14,overcast clouds
319,Chippewa Falls,US,44.9369,-91.3929,36.37,91,0,0.0,clear sky
320,Xinyu,CN,27.8043,114.9334,79.84,29,41,5.99,scattered clouds
321,Sri Aman,MY,1.2376,111.4621,89.65,62,20,7.0,few clouds
322,Nago,JP,26.5881,127.9761,79.23,62,88,15.21,overcast clouds
323,Kachug,RU,53.9606,105.8817,35.82,37,14,3.71,few clouds
324,Bajna,IN,27.9,77.6833,81.36,29,0,2.66,clear sky
325,Cam Ranh,VN,11.9214,109.1591,89.56,62,20,10.36,few clouds
326,Soc Trang,VN,9.6033,105.98,85.69,71,99,8.61,overcast clouds
327,La Ronge,CA,55.1001,-105.2842,32.22,80,100,2.3,overcast clouds
328,Bonavista,CA,48.6499,-53.1147,52.54,84,93,8.59,overcast clouds
329,Rio Grande,BR,-32.035,-52.0986,63.07,86,54,17.22,broken clouds
330,Richards Bay,ZA,-28.783,32.0377,71.44,80,99,15.52,overcast clouds
331,Halifax,CA,44.6453,-63.5724,60.69,97,100,2.3,overcast clouds
332,Husavik,IS,66.0449,-17.3389,37.0,98,100,7.94,overcast clouds
333,Tahe,CN,52.3333,124.7333,36.66,34,1,10.02,clear sky
334,Kuhdasht,IR,33.535,47.6061,70.07,28,0,2.13,clear sky
335,Waingapu,ID,-9.6567,120.2641,86.34,64,100,9.35,overcast clouds
336,Jackson,US,42.4165,-122.8345,49.87,84,100,8.05,overcast clouds
337,Del Rio,US,29.3627,-100.8968,59.23,58,0,0.0,clear sky
338,Amga,RU,60.8953,131.9608,28.96,90,100,6.93,overcast clouds
339,Milledgeville,US,33.0801,-83.2321,71.49,66,100,4.61,overcast clouds
340,Las Colinas,PA,8.55,-80.0833,74.75,88,96,3.42,light rain
341,Khowst,AF,33.3833,69.8833,70.14,20,0,1.7,clear sky
342,Broome,US,42.2506,-75.833,65.86,93,75,9.22,broken clouds
343,Leningradskiy,RU,69.3833,178.4167,0.77,90,12,5.32,few clouds
344,Skagen,DK,57.7209,10.5839,53.47,91,32,17.69,scattered clouds
345,Nuuk,GL,64.1835,-51.7216,30.81,86,75,6.91,broken clouds
346,Bilibino,RU,68.0546,166.4372,-4.41,95,86,2.01,overcast clouds
347,Vyshestebliyevskaya,RU,45.1961,37.0181,50.41,71,100,15.43,overcast clouds
348,Vanimo,PG,-2.6741,141.3028,84.9,67,48,7.63,scattered clouds
349,Dunmore Town,BS,25.5,-76.65,79.03,71,8,8.19,clear sky
350,Pringsewu,ID,-5.3582,104.9744,75.15,95,100,4.43,overcast clouds
351,Naron,ES,43.5167,-8.1528,64.02,77,100,14.65,overcast clouds
352,Tsiroanomandidy,MG,-18.7667,46.0333,77.22,53,19,4.52,few clouds
353,Barcelos,PT,41.5388,-8.6151,64.54,92,87,8.23,light rain
354,Vanderhoof,CA,54.0166,-124.0198,32.25,80,73,3.67,broken clouds
355,Lebowakgomo,ZA,-24.2,29.5,65.3,34,3,4.59,clear sky
356,Serebryansk,KZ,49.6925,83.2892,42.06,31,60,6.64,broken clouds
357,Hatillo,PR,18.4863,-66.8254,77.79,93,100,4.0,moderate rain
358,Ode,NG,7.7899,5.7117,69.06,99,96,3.51,overcast clouds
359,Seoul,KR,37.5683,126.9778,63.97,36,0,2.3,clear sky
360,Storforshei,NO,66.4043,14.5233,40.66,100,75,1.14,broken clouds
361,Kirakira,SB,-10.4544,161.9205,84.61,71,31,3.13,scattered clouds
362,La Grande,US,45.3246,-118.0877,42.57,87,100,5.7,overcast clouds
363,Winnemucca,US,40.973,-117.7357,44.38,39,40,5.17,scattered clouds
364,Samarai,PG,-10.6167,150.6667,84.51,67,16,12.12,few clouds
365,Clyde River,CA,70.4692,-68.5914,3.43,78,0,5.75,clear sky
366,Abu Zabad,SD,12.35,29.25,71.53,26,5,12.26,clear sky
367,Gizo,SB,-8.103,156.8419,84.78,67,43,3.4,scattered clouds
368,Vila Velha,BR,-20.3297,-40.2925,71.55,94,75,2.3,broken clouds
369,Grand Gaube,MU,-20.0064,57.6608,77.38,64,47,11.01,scattered clouds
370,Lavrentiya,RU,65.5833,-171.0,26.44,80,44,11.25,scattered clouds
371,Ada,US,43.4166,-116.1262,43.48,66,0,11.5,clear sky
372,Kiama,AU,-34.6833,150.8667,81.37,53,30,7.0,scattered clouds
373,Xuddur,SO,4.1213,43.8894,76.62,70,96,10.45,overcast clouds
374,Varzelandia,BR,-15.7014,-44.0275,68.11,61,4,4.34,clear sky
375,Olafsvik,IS,64.8945,-23.7142,42.22,83,100,17.69,moderate rain
376,Griffith,US,41.5284,-87.4237,51.73,96,100,19.57,heavy intensity rain
377,Sorata,BO,-15.7667,-68.6333,44.2,91,55,1.1,broken clouds
378,Anadyr,RU,64.75,177.4833,7.3,84,0,6.71,clear sky
379,Tambacounda,SN,13.7539,-13.7586,78.75,55,46,2.44,scattered clouds
380,Sakaiminato,JP,35.55,133.2333,66.18,55,40,12.66,scattered clouds
381,Oyama,JP,36.3,139.8,63.3,34,5,8.01,clear sky
382,Neiafu,TO,-18.65,-173.9833,72.28,88,75,2.3,light intensity shower rain
383,Gomel,BY,52.4345,30.9754,51.82,93,100,6.71,mist
384,General Roca,AR,-39.0333,-67.5833,63.63,42,47,21.27,scattered clouds
385,Keita,NE,14.7551,5.7749,75.16,24,32,9.17,scattered clouds
386,Ostrovnoy,RU,68.0531,39.5131,31.41,82,100,20.27,overcast clouds
387,Whitehorse,CA,60.7161,-135.0538,18.37,86,40,11.5,scattered clouds
388,Kholtoson,RU,50.2981,103.3097,35.53,38,1,3.42,clear sky
389,Sept-Iles,CA,50.2001,-66.3821,48.72,98,100,2.3,light intensity drizzle
390,Edeia,BR,-17.3383,-49.9314,78.31,44,71,1.5,broken clouds
391,Skibbereen,IE,51.55,-9.2667,56.1,91,48,23.04,scattered clouds
392,Jeremoabo,BR,-10.075,-38.4808,70.68,96,99,6.24,overcast clouds
393,Shache,CN,38.4167,77.2406,55.71,18,98,5.68,overcast clouds
394,Mehamn,NO,71.0357,27.8492,33.75,86,75,10.36,broken clouds
395,Tocopilla,CL,-22.092,-70.1979,60.31,70,14,5.14,few clouds
396,Ravar,IR,31.2656,56.8055,73.51,21,2,4.05,clear sky
397,Eureka,US,40.8021,-124.1637,48.92,91,39,1.99,scattered clouds
398,Safford,US,32.834,-109.7076,49.12,49,0,3.44,clear sky
399,Beringovskiy,RU,63.05,179.3167,22.17,71,8,6.13,clear sky
400,Sao Joao Da Barra,BR,-21.6403,-41.0511,69.78,85,14,8.79,few clouds
401,Biu,NG,10.6129,12.1946,68.52,38,15,6.22,few clouds
402,Adrar,MR,20.5022,-10.0711,73.45,16,73,10.42,broken clouds
403,Hammerfest,NO,70.6634,23.6821,34.25,86,75,5.75,broken clouds
404,Harrison,US,30.4091,-89.0436,64.45,71,0,9.22,clear sky
405,Yerofey Pavlovich,RU,53.9667,121.9667,34.12,42,9,4.34,clear sky
406,Honiara,SB,-9.4333,159.95,84.76,74,61,5.64,broken clouds
407,Norman Wells,CA,65.282,-126.8329,17.64,93,75,6.91,broken clouds
408,Talaya,RU,61.3833,152.75,12.45,72,2,7.65,clear sky
409,Srednekolymsk,RU,67.45,153.6833,14.99,95,100,9.98,overcast clouds
410,Menongue,AO,-14.6585,17.691,64.76,79,48,2.24,scattered clouds
411,Tucurui,BR,-3.7661,-49.6725,73.29,97,100,2.15,moderate rain
412,Talcahuano,CL,-36.7167,-73.1167,55.08,94,100,8.05,overcast clouds
413,Saskylakh,RU,71.9167,114.0833,-4.83,100,40,4.23,scattered clouds
414,Benguela,AO,-12.5763,13.4055,74.64,86,79,4.5,broken clouds
415,Amahai,ID,-3.3333,128.9167,86.18,64,89,6.29,overcast clouds
416,Kimbe,PG,-5.5502,150.1429,84.52,76,99,3.2,light rain
417,Darnah,LY,32.767,22.6367,68.29,85,0,11.14,clear sky
418,Wingham,CA,43.8879,-81.3114,61.29,83,100,13.8,overcast clouds
419,Palmer,US,42.1584,-72.3287,64.92,84,100,3.44,overcast clouds
420,Alofi,NU,-19.0595,-169.9187,75.09,64,94,10.36,overcast clouds
421,Hervey Bay,AU,-25.2986,152.8535,86.02,69,1,11.01,clear sky
422,Ellisras,ZA,-23.6649,27.7443,80.73,33,6,4.94,clear sky
423,Jedovnice,CZ,49.3445,16.756,45.79,89,73,1.01,broken clouds
424,Yelovo,RU,57.0538,54.9207,29.39,83,66,10.31,broken clouds
425,Puerto Madryn,AR,-42.7692,-65.0385,58.08,66,68,10.87,broken clouds
426,North Adams,US,42.7009,-73.1087,64.22,86,100,4.61,overcast clouds
427,Zhezkazgan,KZ,47.8043,67.7144,40.98,60,40,13.42,scattered clouds
428,Panshi,CN,42.9422,126.0561,52.86,65,100,14.67,light rain
429,Tambovka,RU,50.0969,128.0489,38.88,63,100,15.7,overcast clouds
430,Conde,BR,-7.2597,-34.9075,76.46,83,75,3.44,broken clouds
431,West Wendover,US,40.7391,-114.0733,43.81,53,0,4.61,clear sky
432,Athabasca,CA,54.7169,-113.2854,30.61,86,56,1.25,broken clouds
433,Koroni,GR,36.8,21.95,64.08,51,0,3.62,clear sky
434,Aksarayskiy,RU,46.7924,48.0119,42.22,56,21,4.09,few clouds
435,Kindu,CD,-2.95,25.95,70.68,97,100,0.67,overcast clouds
436,Sao Manuel,BR,-22.7311,-48.5706,57.36,74,0,7.09,clear sky
437,Horta,PT,38.5333,-28.6333,63.01,64,78,5.99,broken clouds
438,Fare,PF,-16.7,-151.0167,79.79,77,100,20.85,light rain
439,Cukai,MY,4.25,103.4167,87.75,80,100,3.06,overcast clouds
440,Belyy Yar,RU,53.6039,91.3903,31.89,55,0,4.47,clear sky
441,Xining,CN,36.6167,101.7667,56.21,52,72,4.7,broken clouds
442,Razdolinsk,RU,58.4211,94.6658,34.36,55,16,9.28,few clouds
443,Thunder Bay,CA,48.4001,-89.3168,39.18,60,100,13.8,overcast clouds
444,Golden,US,39.7555,-105.2211,47.98,44,100,13.8,overcast clouds
445,Khani,GE,41.9563,42.9566,47.77,60,13,4.85,few clouds
446,Tumut,AU,-35.3,148.2167,63.16,90,95,12.91,overcast clouds
447,Cascais,PT,38.6979,-9.4215,68.5,100,68,10.0,broken clouds
448,Fortuna,US,40.5982,-124.1573,48.65,96,0,5.75,clear sky
449,Yuncheng,CN,35.0231,110.9928,59.72,67,100,4.07,overcast clouds
450,Gao,ML,16.6362,1.637,76.64,24,11,15.08,few clouds
451,Cairns,AU,-16.9167,145.7667,105.06,76,12,10.36,few clouds
452,Taoudenni,ML,22.6783,-3.9836,75.79,15,82,6.85,broken clouds
453,Kamenka,RU,51.3223,42.7678,35.28,71,87,8.95,overcast clouds
454,Evensk,RU,61.95,159.2333,16.18,76,12,8.37,few clouds
455,Termiz,UZ,37.2242,67.2783,59.09,82,40,9.22,scattered clouds
456,Khandyga,RU,62.6667,135.6,25.2,94,100,5.77,overcast clouds
457,Cobourg,DE,50.2667,10.9667,51.04,97,100,2.28,light rain
458,Ballina,AU,-28.8667,153.5667,87.01,46,2,8.19,clear sky
459,Fukue,JP,32.6881,128.8419,68.36,37,40,6.91,scattered clouds
460,Thiruvananthapuram,IN,8.4833,76.9167,87.78,66,20,5.75,few clouds
461,Omboue,GA,-1.5746,9.2618,76.03,91,100,4.05,overcast clouds
462,Zimovniki,RU,47.1483,42.4633,48.36,67,100,9.57,overcast clouds
463,Marsh Harbour,BS,26.5412,-77.0636,77.5,66,2,6.93,clear sky
464,Sungaipenuh,ID,-2.0833,101.3833,74.26,75,100,4.99,overcast clouds
465,Kungurtug,RU,50.5994,97.5228,36.18,18,4,2.06,clear sky
466,Jojoima,SL,7.8792,-10.7878,71.22,99,60,0.6,broken clouds
467,Saint-Georges,GD,12.0564,-61.7485,82.08,89,20,18.41,few clouds
468,San Quintin,MX,30.4833,-115.95,65.32,73,0,9.24,clear sky
469,Pervoye Maya,RU,56.164,44.7196,30.92,86,10,2.89,clear sky
470,Bubaque,GW,11.2833,-15.8333,82.92,74,9,6.49,clear sky
471,Rupert,US,42.6191,-113.6772,32.18,86,0,0.0,clear sky
472,Solaro,IT,44.8799,9.1732,61.56,92,69,1.01,broken clouds
473,Abu Dhabi,AE,24.4667,54.3667,80.96,72,0,3.44,clear sky
474,Picota,PE,-6.9197,-76.3304,77.27,80,92,0.51,overcast clouds
475,Bandarbeyla,SO,9.4942,50.8122,79.97,67,54,7.78,broken clouds
476,Lianzhou,CN,24.7811,112.3825,90.14,34,6,2.91,clear sky
477,Mastung,PK,29.7994,66.845,68.86,20,5,4.14,clear sky
478,Cap-Aux-Meules,CA,47.3821,-61.8597,60.82,100,100,6.91,overcast clouds
479,Inuvik,CA,68.3499,-133.7218,14.86,85,100,8.05,overcast clouds
480,Riyadh,SA,24.6877,46.7219,64.54,17,0,7.09,clear sky
481,Marienburg,PL,54.0359,19.0266,52.84,94,7,8.23,clear sky
482,Cap Malheureux,MU,-19.9842,57.6142,78.48,66,44,8.99,scattered clouds
483,Brokopondo,SR,4.75,-55.1667,76.32,86,62,6.17,broken clouds
484,Mwense,ZM,-10.3845,28.698,76.05,49,96,3.36,overcast clouds
485,Galesong,ID,-5.3166,119.3661,86.02,67,100,8.28,overcast clouds
486,Champerico,GT,14.3,-91.9167,79.32,80,100,6.78,overcast clouds
487,Noumea,NC,-22.2763,166.4572,82.38,76,74,10.25,broken clouds
488,Fort Nelson,CA,58.8053,-122.7002,22.59,93,100,4.61,overcast clouds
489,Nemuro,JP,43.3236,145.575,47.71,58,65,10.56,broken clouds
490,Beipiao,CN,41.7919,120.7792,52.61,42,99,15.39,overcast clouds
491,Gladstone,AU,-23.85,151.25,91.78,45,27,12.66,scattered clouds
492,Qaqortoq,GL,60.7167,-46.0333,27.37,71,49,7.72,scattered clouds
493,Vila Franca Do Campo,PT,37.7167,-25.4333,63.01,69,65,12.93,broken clouds
494,Jiangyou,CN,31.7667,104.7167,68.4,67,71,6.24,broken clouds
495,Erenhot,CN,43.6475,111.9767,38.75,32,2,9.33,clear sky
496,Jumla,NP,29.2747,82.1838,61.61,24,0,5.53,clear sky
497,Guiratinga,BR,-16.3494,-53.7583,77.0,58,35,0.6,scattered clouds
498,Inhambane,MZ,-23.865,35.3833,78.44,83,67,8.3,broken clouds
499,Havre-Saint-Pierre,CA,50.2334,-63.5986,50.36,93,100,4.61,fog
500,Monroe,US,43.1501,-77.6831,62.02,86,40,5.75,scattered clouds
501,Lensk,RU,60.7253,114.9278,32.79,81,99,11.25,overcast clouds
502,Yumbe,UG,3.4651,31.2469,69.48,85,90,4.76,light rain
503,Sovetskaya Gavan,RU,48.9723,140.2878,49.87,42,12,6.58,few clouds
504,Oskemen,KZ,49.9565,82.6119,37.36,69,75,0.0,broken clouds
505,Flinders,AU,-34.5833,150.8552,81.18,52,33,10.0,scattered clouds
506,Abu Kamal,SY,34.4506,40.9171,73.35,19,96,3.02,overcast clouds
507,Korla,CN,41.7597,86.1469,58.51,26,29,5.66,scattered clouds
508,Paamiut,GL,61.994,-49.6678,31.8,55,100,4.88,overcast clouds
509,Iskateley,RU,67.6803,53.1512,28.51,89,100,14.14,overcast clouds
510,Umm Kaddadah,SD,13.6017,26.6876,70.97,22,0,15.5,clear sky
511,Kruisfontein,ZA,-34.0033,24.7314,58.66,83,100,5.75,overcast clouds
512,Chumikan,RU,54.7183,135.315,34.39,99,100,5.86,light snow
513,Huarmey,PE,-10.0681,-78.1522,60.93,89,15,9.84,few clouds
514,Khovu-Aksy,RU,51.1333,93.6,33.01,27,24,3.2,few clouds
515,Isla Mujeres,MX,21.2311,-86.731,80.65,76,7,9.86,clear sky
516,Tigil,RU,57.8,158.6667,34.81,94,100,20.0,light snow
517,Dickinson,US,29.4608,-95.0513,66.15,66,0,0.0,clear sky
518,Doka,SD,13.5167,35.7667,76.8,47,8,6.98,clear sky
519,Jaicos,BR,-7.3592,-41.1378,75.25,84,100,3.96,overcast clouds
520,Brandon,US,27.9378,-82.2859,73.31,90,40,3.44,scattered clouds
521,Burnie,AU,-41.0667,145.9167,56.91,95,100,2.17,light rain
522,Ulladulla,AU,-35.35,150.4667,79.7,57,27,7.96,scattered clouds
523,Morant Bay,JM,17.8815,-76.4093,78.42,83,13,3.87,few clouds
524,Port Keats,AU,-14.25,129.55,91.83,57,47,13.65,scattered clouds
525,Nahrin,AF,36.0649,69.1334,53.87,75,100,3.76,overcast clouds
526,Lar,IN,26.2039,83.9717,81.34,41,0,4.18,clear sky
527,Agua Verde,MX,22.9,-106.05,75.29,82,1,5.06,clear sky
528,Guider,CM,9.9342,13.9486,75.31,44,84,4.0,broken clouds
529,Rio Gallegos,AR,-51.6226,-69.2181,46.45,66,0,19.57,clear sky
530,Aksu,CN,41.1231,80.2644,57.42,23,100,0.58,overcast clouds
531,Mirandola,IT,44.8868,11.0662,60.1,81,97,1.05,overcast clouds
532,Tual,ID,-5.6667,132.75,83.93,70,63,5.35,broken clouds
533,Akdepe,TM,42.0551,59.3788,48.29,61,5,11.01,clear sky
534,Beloha,MG,-25.1667,45.05,80.46,51,86,5.37,overcast clouds
535,Pangkalanbuun,ID,-2.6833,111.6167,78.62,87,100,5.68,light rain
536,Zyryanovsk,KZ,49.7386,84.2719,40.35,32,26,1.41,scattered clouds
537,Chimoio,MZ,-19.1164,33.4833,71.46,94,0,2.73,clear sky
538,Atikokan,CA,48.7555,-91.6216,34.0,74,100,6.42,overcast clouds
539,Antofagasta,CL,-23.65,-70.4,58.28,76,39,6.17,scattered clouds
540,Seybaplaya,MX,19.65,-90.6667,78.08,86,62,6.82,light rain
541,Gumdag,TM,39.2061,54.5906,60.35,53,1,7.9,clear sky
542,Pasichna,UA,48.5715,24.43,46.62,92,19,4.74,few clouds
543,Bintulu,MY,3.1667,113.0333,86.41,70,40,4.61,scattered clouds
544,Maningrida,AU,-12.0667,134.2667,91.99,50,36,13.33,scattered clouds
545,Mandiana,GN,10.6333,-8.6833,72.14,54,9,1.95,clear sky
546,Miguel Hidalgo,MX,19.4225,-99.2028,65.61,67,75,6.91,broken clouds
547,Torbat-E Jam,IR,35.244,60.6225,58.15,62,97,5.61,overcast clouds
548,Ariquemes,BR,-9.9133,-63.0408,73.53,96,100,1.19,moderate rain
549,Gamboma,CG,-1.8764,15.8644,71.49,95,92,1.74,overcast clouds
550,Jacqueville,CI,5.2052,-4.4146,78.55,86,100,5.55,overcast clouds
551,Wageningen,NL,51.9667,5.6667,54.86,91,100,6.91,overcast clouds
552,Sume,BR,-7.6717,-36.88,70.05,86,97,10.13,overcast clouds
553,Riberalta,BO,-10.9833,-66.1,76.66,78,94,2.86,overcast clouds
554,Hasaki,JP,35.7333,140.8333,64.8,51,71,27.96,broken clouds
555,Rimbey,CA,52.6334,-114.2353,30.22,66,87,6.13,overcast clouds
556,Seminole,US,28.7086,-81.2081,70.16,89,75,3.44,broken clouds
557,Anshun,CN,26.25,105.9333,70.3,67,88,8.12,overcast clouds
558,Aswan,EG,24.0934,32.907,69.46,43,0,7.81,clear sky
559,Acarau,BR,-2.8856,-40.12,77.77,78,100,12.03,overcast clouds
560,Mashhad,IR,36.297,59.6062,55.54,76,40,6.91,scattered clouds
561,Ajdabiya,LY,30.7554,20.2263,65.61,88,0,6.78,clear sky
562,Tazovskiy,RU,67.4667,78.7,19.06,90,69,9.62,broken clouds
563,Cloquet,US,46.7216,-92.4594,40.62,75,100,5.75,overcast clouds
564,Billings,US,45.7833,-108.5007,44.37,51,40,5.75,scattered clouds
565,Santiago Del Estero,AR,-27.7951,-64.2615,75.29,57,29,9.89,scattered clouds
566,Akyab,MM,20.15,92.9,82.2,70,19,2.42,few clouds
567,Tabou,CI,4.423,-7.3528,76.87,90,69,6.98,light rain
568,Bud,US,39.447,-86.1758,60.82,95,100,10.96,overcast clouds
569,Uva,RU,56.9908,52.1852,29.43,86,62,5.57,broken clouds
570,Palimbang,PH,6.2106,124.1894,85.66,72,82,8.77,broken clouds
571,Merauke,ID,-8.4667,140.3333,85.1,66,59,10.09,broken clouds
572,Oissel,FR,49.3333,1.1,60.53,86,0,11.5,clear sky
573,Aykhal,RU,66.0,111.5,22.73,94,100,16.8,overcast clouds
574,Igarka,RU,67.4667,86.5833,18.41,95,100,13.27,light snow
575,Kenora,CA,49.8167,-94.4337,31.17,86,75,10.36,broken clouds
576,Amapa,BR,1.0,-52.0,72.72,96,100,1.3,overcast clouds
577,Darasun,RU,51.6667,114.0,35.04,36,0,7.45,clear sky
578,Grindavik,IS,63.8424,-22.4338,46.87,87,100,21.85,overcast clouds
579,Port Blair,IN,11.6667,92.75,86.04,70,75,6.91,broken clouds
580,Shirokiy,RU,49.758,129.523,36.82,98,100,8.7,overcast clouds
581,Morehead,US,37.2711,-87.1764,56.95,90,100,9.22,overcast clouds
582,Moorhead,US,46.8739,-96.7676,39.97,67,100,10.36,overcast clouds
583,Tarasovskiy,RU,48.7292,40.3636,49.39,79,100,8.97,overcast clouds
584,Vestmannaeyjar,IS,63.4427,-20.2734,44.74,86,97,21.59,overcast clouds
585,Urdoma,RU,61.7533,48.5442,28.35,95,20,3.42,few clouds
586,San Carlos De Bariloche,AR,-41.1456,-71.3082,48.24,85,40,17.27,scattered clouds
587,Cabatuan,PH,10.8794,122.486,85.39,71,100,12.84,moderate rain
588,Semnan,IR,35.5729,53.3971,57.04,47,0,0.0,clear sky
589,Monrovia,LR,6.3005,-10.7969,77.41,86,50,1.61,scattered clouds
590,Bandiagara,ML,14.3501,-3.6104,81.41,20,30,8.86,scattered clouds
591,Tahara,JP,34.6667,137.2667,65.95,2,0,8.46,clear sky
592,Tieli,CN,46.95,128.05,44.02,91,100,10.07,moderate rain
593,Nagaur,IN,27.2,73.7333,86.14,31,0,14.12,clear sky
594,Rio Muerto,MX,27.4167,-110.2333,72.0,38,1,7.81,clear sky
595,Valdez,EC,1.2492,-78.9831,76.57,82,98,8.9,overcast clouds
596,Guerrero Negro,MX,27.9769,-114.0611,67.59,61,0,11.34,clear sky
597,Teguise,ES,29.0605,-13.564,64.62,73,0,3.44,clear sky
598,Concarneau,FR,47.875,-3.9225,64.81,83,86,23.51,overcast clouds
599,Port Macquarie,AU,-31.4333,152.9167,86.9,54,8,6.04,clear sky
600,Truro,GB,50.2653,-5.0544,60.08,88,20,21.85,few clouds
601,Miramar,US,25.9873,-80.2323,75.99,72,0,3.44,clear sky
602,Warud,IN,21.4667,78.2667,78.12,46,0,3.2,clear sky
603,Seredka,RU,58.1584,28.1858,49.75,98,100,5.28,overcast clouds
604,Waddan,LY,29.1614,16.139,63.37,53,0,6.42,clear sky
605,Nizhniy Baskunchak,RU,48.2198,46.8311,40.46,62,19,3.78,few clouds
606,Outjo,NA,-20.1167,16.15,69.8,31,12,6.13,few clouds
607,Ginir,ET,7.1333,40.7,61.97,76,18,1.03,few clouds
608,Miri,MY,4.4148,114.0089,87.94,66,40,8.05,scattered clouds
609,Merritt Island,US,28.5392,-80.672,72.0,83,0,0.0,clear sky
610,Sawakin,SD,19.1059,37.3321,83.39,73,76,6.76,broken clouds
611,Kasempa,ZM,-13.4584,25.8338,72.18,51,35,3.76,scattered clouds
612,Brightwater,NZ,-41.3833,173.1167,65.5,51,91,4.03,overcast clouds
613,Kultuk,RU,51.7208,103.6956,41.81,41,0,4.45,clear sky
614,Laguna,US,38.421,-121.4238,61.32,65,0,6.91,clear sky
615,Salinopolis,BR,-0.6136,-47.3561,79.75,75,76,10.42,broken clouds
616,Hobyo,SO,5.3505,48.5268,80.92,76,48,8.61,light rain
617,Byron Bay,AU,-28.65,153.6167,86.94,50,1,8.66,clear sky
618,Bayonet Point,US,28.3267,-82.6834,73.4,91,58,5.91,broken clouds
619,Baykit,RU,61.67,96.37,33.4,67,100,11.88,overcast clouds
620,Kalmar,SE,56.6616,16.3616,53.15,98,75,6.91,broken clouds
621,Pangnirtung,CA,66.1451,-65.7125,22.12,88,100,10.89,light snow
622,Ponta Delgada,PT,37.7333,-25.6667,63.32,77,20,16.11,few clouds
623,Katangli,RU,51.7102,143.2326,47.62,56,46,9.4,scattered clouds
624,Caravelas,BR,-17.7125,-39.2481,70.11,93,17,1.63,few clouds
625,Tamsweg,AT,47.1281,13.811,50.68,83,100,2.08,overcast clouds
626,Sompeta,IN,18.9333,84.6,82.06,65,5,6.15,clear sky
627,Kalengwa,ZM,-13.4659,25.0027,69.46,57,38,4.36,scattered clouds
628,Ambala,IN,30.3783,76.7808,77.16,45,0,6.22,clear sky
629,Qinzhou,CN,21.95,108.6167,83.37,51,82,8.93,broken clouds
630,Zhob,PK,31.3411,69.4481,72.09,15,0,3.65,clear sky
631,Mindelo,CV,16.8901,-24.9804,74.75,73,20,5.75,few clouds
632,Sorland,NO,67.667,12.6934,44.46,69,100,6.33,overcast clouds
633,San Vicente,AR,-26.6167,-54.1333,61.74,88,0,3.18,clear sky
634,Begamganj,IN,23.6,78.3333,78.39,40,0,4.79,clear sky
635,Usinsk,RU,65.9939,57.5281,22.32,98,79,7.7,broken clouds
636,Lewiston,US,44.1003,-70.2148,63.91,97,100,0.0,overcast clouds
637,Huancabamba,PE,-5.2386,-79.4506,59.83,92,84,1.5,broken clouds
638,Buchanan,LR,5.8808,-10.0467,76.84,88,40,3.29,light rain
639,Disna,BY,55.568,28.1971,49.24,95,100,4.03,overcast clouds
640,Casa Nova,BR,-9.4167,-41.1333,72.55,91,100,7.85,overcast clouds
641,Uwajima,JP,33.2238,132.56,63.95,51,0,4.94,clear sky
642,La Macarena,CO,2.1837,-73.7849,72.14,96,100,1.28,overcast clouds
643,Marzuq,YE,14.4,46.4667,73.96,31,5,2.28,clear sky
644,Tommot,RU,58.9564,126.2925,30.88,86,99,9.17,light snow
645,Okato,NZ,-39.2,173.8833,62.91,86,19,11.01,few clouds
646,Tailai,CN,46.3833,123.4,42.48,71,83,17.81,broken clouds
647,Thanatpin,MM,17.2119,96.3033,86.18,72,89,2.21,overcast clouds
648,Teodoro Sampaio,BR,-22.5325,-52.1675,67.23,65,0,8.77,clear sky
649,Kanigoro,ID,-8.13,112.219,83.28,64,56,9.98,broken clouds
650,Wilmington,US,34.2257,-77.9447,62.91,91,75,1.99,broken clouds
651,Kadhan,PK,24.481,68.9859,86.81,50,0,10.71,clear sky
652,Bentong,MY,3.5181,101.9079,80.62,84,99,3.18,overcast clouds
653,Naro,IT,37.2935,13.7936,64.76,33,55,5.77,broken clouds
654,Suntar,RU,62.1444,117.6319,32.02,78,100,8.12,overcast clouds
655,Troitskoye,RU,52.9821,84.6757,41.14,39,2,6.13,clear sky
656,Praxedis Guerrero,MX,31.3667,-106.0167,55.6,28,0,2.33,clear sky
657,Heihe,CN,50.2441,127.4902,41.58,49,100,15.59,overcast clouds
658,Hearst,CA,49.6835,-83.6665,43.05,80,98,5.59,light rain
659,Eganville,CA,45.5334,-77.0994,58.51,96,100,7.56,overcast clouds
660,Boksitogorsk,RU,59.474,33.8485,32.61,91,100,8.41,light snow
661,Imbituba,BR,-28.24,-48.6703,62.17,91,51,9.84,broken clouds
662,Lucapa,AO,-8.4192,20.7447,66.25,94,49,1.92,scattered clouds
663,Pinar Del Rio,CU,22.4175,-83.6981,69.35,84,7,1.68,clear sky
664,Tosya,TR,41.0155,34.0401,51.48,51,32,3.51,scattered clouds
665,Isahaya,JP,32.8411,130.0431,69.13,30,40,4.61,scattered clouds
666,Ahipara,NZ,-35.1667,173.1667,63.45,61,62,8.05,broken clouds
667,Epe,NG,6.5841,3.9834,75.88,90,59,1.72,broken clouds
668,Alice Springs,AU,-23.7,133.8833,92.75,20,5,16.11,clear sky
669,Reconquista,AR,-29.15,-59.65,73.89,50,78,12.44,broken clouds
670,San Roque,ES,36.2107,-5.3842,63.43,68,0,5.75,clear sky
671,Pechora,RU,65.1472,57.2244,25.16,93,99,6.67,overcast clouds
672,Ormara,PK,25.2088,64.6357,82.15,63,0,3.53,clear sky
673,Gouyave,GD,12.1646,-61.7296,81.37,89,20,18.41,light rain
674,Golubitskaya,RU,45.3222,37.2822,54.01,77,100,9.64,overcast clouds
675,Kushima,JP,31.4583,131.2333,67.69,55,44,9.37,scattered clouds
676,Labuan,MY,5.2767,115.2417,86.36,74,20,5.01,few clouds
677,Mogadishu,SO,2.0371,45.3438,80.47,78,40,8.05,scattered clouds
678,Arlit,NE,18.7369,7.3853,71.65,14,0,3.58,clear sky
679,Belmonte,BR,-15.8631,-38.8828,73.0,88,56,5.37,broken clouds
680,Sistranda,NO,63.7256,8.834,48.16,95,100,11.21,light rain
681,Gorontalo,ID,0.5412,123.0595,88.07,63,97,4.43,overcast clouds
682,Makarov,RU,48.6333,142.8,50.04,67,47,12.35,scattered clouds
683,Puerto Suarez,BO,-18.95,-57.8,76.42,55,0,2.64,clear sky
684,Trairi,BR,-3.2778,-39.2689,77.61,76,98,9.06,overcast clouds
685,Agde,FR,43.3108,3.4758,66.94,97,75,6.91,broken clouds
686,Wanning,CN,18.8003,110.3967,78.53,86,93,14.23,overcast clouds
687,Ketchikan,US,55.3422,-131.6461,37.87,93,40,3.44,scattered clouds
688,Avera,US,33.194,-82.5271,68.38,57,84,10.49,broken clouds
689,Coihaique,CL,-45.5752,-72.0662,48.15,87,100,8.05,light rain
690,Shelburne,CA,44.0787,-80.2041,58.6,88,100,8.86,overcast clouds
691,Hit,IQ,33.6416,42.8251,73.08,19,48,7.09,scattered clouds
692,Alamosa,US,37.4695,-105.87,30.18,55,0,8.05,clear sky
693,Luau,AO,-10.7073,22.2247,66.96,86,92,2.95,light rain
694,Paita,PE,-5.0892,-81.1144,62.51,84,66,10.09,broken clouds
695,Lasa,IT,46.6166,10.7002,52.68,83,89,1.72,overcast clouds
696,Yar-Sale,RU,66.8333,70.8333,20.77,94,88,7.78,overcast clouds
697,Watsa,CD,3.0372,29.5355,65.1,96,74,1.7,broken clouds
698,Algiers,DZ,36.7525,3.042,57.02,58,0,2.3,clear sky
699,Sikasso,ML,10.9167,-7.0,74.21,53,23,2.15,few clouds
700,Russellville,US,35.2784,-93.1338,43.18,95,0,0.0,clear sky
701,Konispol,AL,39.6589,20.1814,54.55,44,7,4.47,clear sky
702,Nueve De Julio,AR,-35.4444,-60.8831,59.97,99,100,1.99,light rain
703,Winslow,US,35.0242,-110.6974,42.98,39,0,3.44,clear sky
704,Cherdakly,RU,54.3594,48.845,31.95,69,75,8.95,broken clouds
705,Beira,MZ,-19.8436,34.8389,75.29,100,100,3.44,fog
706,Lahaina,US,20.8783,-156.6825,82.4,90,10,12.75,clear sky
707,Smolenka,RU,52.1352,113.4974,35.67,38,0,4.47,clear sky
708,Dukat,RU,62.55,155.55,11.84,73,2,21.36,clear sky
709,Sambava,MG,-14.2667,50.1667,76.14,68,44,7.27,scattered clouds
710,Harper,LR,4.375,-7.7169,76.95,89,88,7.56,light rain
711,Brae,GB,60.3964,-1.353,52.57,94,100,13.6,light rain
